NUTS_ID,NUTS_NAME,id,height,latitude,longitude,name,state
DE600,Hamburg,1972,35,53.4793,10.2415,Hamburg-Bergedorf,Hamburg
DE600,Hamburg,1975,14,53.6332,9.9881,Hamburg-Fuhlsbüttel,Hamburg
DE600,Hamburg,1981,3,53.4777,9.8957,Hamburg-Neuwiedenthal,Hamburg
DE600,Hamburg,1987,47,53.5467,9.9662,Hamburg-Sankt Pauli,Hamburg
DE600,Hamburg,1990,18,53.5853,10.1293,Hamburg-Wandsbek,Hamburg
DE600,Hamburg,6254,19,53.5408,9.9528,Hamburg-Lotsenhöft,Hamburg
DE711,"Darmstadt, Kreisfreie Stadt",917,162,49.8809,8.6779,Darmstadt,Hessen
DE711,"Darmstadt, Kreisfreie Stadt",919,169,49.8697,8.6796,Darmstadt-Botanischer Garten,Hessen
DE711,"Darmstadt, Kreisfreie Stadt",920,108,49.8564,8.5929,Darmstadt (US-Air-Base),Hessen
DE712,"Frankfurt am Main, Kreisfreie Stadt",1415,100,50.0333,8.5333,Frankfurt (07W),Hessen
DE712,"Frankfurt am Main, Kreisfreie Stadt",1420,100,50.0259,8.5213,Frankfurt/Main,Hessen
DE712,"Frankfurt am Main, Kreisfreie Stadt",1421,125,50.1474,8.6746,Frankfurt/Main (Stadt),Hessen
DE712,"Frankfurt am Main, Kreisfreie Stadt",1422,114,50.0972,8.6936,Frankfurt (Henninger Turm),Hessen
DE712,"Frankfurt am Main, Kreisfreie Stadt",1423,111,50.0496,8.5887,Frankfurt/Main (Terminal),Hessen
DE712,"Frankfurt am Main, Kreisfreie Stadt",1424,124,50.1269,8.6694,Frankfurt/Main-Westend,Hessen
DE712,"Frankfurt am Main, Kreisfreie Stadt",1425,109,50.1213,8.6601,Frankfurt/Main (Feldbergstr.),Hessen
DE713,"Offenbach am Main, Kreisfreie Stadt",3775,100,50.1029,8.7468,Offenbach/Main (Zentrallabor),Hessen
DE713,"Offenbach am Main, Kreisfreie Stadt",3776,110,50.0946,8.7546,Offenbach/M. (Stadt),Hessen
DE713,"Offenbach am Main, Kreisfreie Stadt",7341,119,50.09,8.7862,Offenbach-Wetterpark,Hessen
DE714,"Wiesbaden, Kreisfreie Stadt",5540,147,50.0681,8.2603,Wiesbaden (Süd),Hessen
DE714,"Wiesbaden, Kreisfreie Stadt",5541,263,50.132,8.317,Wiesbaden-Auringen,Hessen
DE714,"Wiesbaden, Kreisfreie Stadt",5542,90,50.0421,8.2331,Wiesbaden-Biebrich,Hessen
DE715,Bergstraße,2900,208,49.708999999999996,8.6908,Lautertal/Odenwald-Reichenbach,Hessen
DE715,Bergstraße,3017,341,49.68,8.7823,Lindenfels,Hessen
DE715,Bergstraße,14157,168,49.5686,8.7013,Birkenau,Hessen
DE737,Werra-Meißner-Kreis,1297,156,51.2041,10.0138,Eschwege,Hessen
DE737,Werra-Meißner-Kreis,2152,380,51.0423,10.1469,Herleshausen-Archfeld,Hessen
DE737,Werra-Meißner-Kreis,2184,329,51.2133,9.6884,Hessisch Lichtenau-Fürstenhagen,Hessen
DE737,Werra-Meißner-Kreis,4763,265,51.0607,9.9266,Sontra,Hessen
DE737,Werra-Meißner-Kreis,4765,199,51.2801,9.9849,"Sooden-Allendorf, Bad",Hessen
DE737,Werra-Meißner-Kreis,5644,133,51.3493,9.8438,Witzenhausen,Hessen
DE737,Werra-Meißner-Kreis,5646,220,51.3645,9.749,Witzenhausen-Ziegenhagen,Hessen
DE737,Werra-Meißner-Kreis,13701,250,51.1945,9.9885,Eschwege-Eltmannshausen,Hessen
DE803,"Rostock, Kreisfreie Stadt",4271,4,54.1803,12.0808,Rostock-Warnemünde,Mecklenburg-Vorpommern
DE804,"Schwerin, Kreisfreie Stadt",4625,59,53.6425,11.3872,Schwerin,Mecklenburg-Vorpommern
DE80L,Vorpommern-Rügen,183,42,54.6792,13.4343,Arkona,Mecklenburg-Vorpommern
DE80L,Vorpommern-Rügen,298,3,54.3406,12.7108,Barth,Mecklenburg-Vorpommern
DE80L,Vorpommern-Rügen,2201,1,54.575,13.1044,Hiddensee-Vitte,Mecklenburg-Vorpommern
DE80L,Vorpommern-Rügen,3873,4,54.3667,13.0833,Parow (Flugplatz),Mecklenburg-Vorpommern
DE80L,Vorpommern-Rügen,3965,5,54.1034,13.1533,Süderholz-Neuendorf,Mecklenburg-Vorpommern
DE80L,Vorpommern-Rügen,4024,40,54.3643,13.4771,Putbus,Mecklenburg-Vorpommern
DE80L,Vorpommern-Rügen,4352,5,54.516000000000005,13.5313,Sagard,Mecklenburg-Vorpommern
DE80L,Vorpommern-Rügen,5088,3,54.5337,13.245999999999999,Trent,Mecklenburg-Vorpommern
DE80L,Vorpommern-Rügen,5097,10,54.0661,12.7675,Tribsees,Mecklenburg-Vorpommern
DE80L,Vorpommern-Rügen,6199,16,54.2484,13.0418,Steinhagen-Negast,Mecklenburg-Vorpommern
DE923,Hameln-Pyrmont,1993,68,52.0848,9.3896,Hameln,Niedersachsen
DE923,Hameln-Pyrmont,3397,115,52.188,9.4597,"Münder, Bad",Niedersachsen
DE923,Hameln-Pyrmont,4367,175,52.0781,9.552,Salzhemmendorf-Lauenstein,Niedersachsen
DE923,Hameln-Pyrmont,13675,77,52.0818,9.4077,Hameln-Hastenbeck,Niedersachsen
DE94E,"Osnabrück, Landkreis",78,65,52.4853,7.9126,Alfhausen,Niedersachsen
DE94E,"Osnabrück, Landkreis",342,103,52.317,8.1694,Belm,Niedersachsen
DE94E,"Osnabrück, Landkreis",1304,48,52.3345,8.3877,"Essen-Brockhausen, Bad",Niedersachsen
DE94E,"Osnabrück, Landkreis",3820,52,52.3657,8.2013,Ostercappeln-Schwagstorf,Niedersachsen
DE94E,"Osnabrück, Landkreis",4029,25,52.6691,7.9544,Quakenbrück,Niedersachsen
DE94E,"Osnabrück, Landkreis",4288,95,52.1038,8.1808,"Rothenfelde, Bad",Niedersachsen
DE94E,"Osnabrück, Landkreis",4683,46,52.516000000000005,7.6762,Fürstenau,Niedersachsen
DE94E,"Osnabrück, Landkreis",15838,39,52.5023,8.0525,Neuenkirchen/Cloppenburg Klärwerk,Niedersachsen
DE94F,Vechta,988,23,52.6746,8.113999999999999,Dinklage,Niedersachsen
DE94F,Vechta,5236,51,52.8318,8.3112,Visbek,Niedersachsen
DE94G,Wesermarsch,642,1,53.3517,8.4969,Brake,Niedersachsen
DE94G,Wesermarsch,643,0,53.29600000000001,8.4529,Brake-Süderfeld,Niedersachsen
DE94G,Wesermarsch,1204,1,53.2346,8.4612,Elsfleth,Niedersachsen
DE94G,Wesermarsch,3853,2,53.3819,8.4493,Ovelgönne,Niedersachsen
DE94G,Wesermarsch,4803,1,53.4926,8.3768,Butjadingen-Inte,Niedersachsen
DEA59,Olpe,216,298,51.1143,7.8807,Attendorn-Neulisternohl,Nordrhein-Westfalen
DEA59,Olpe,2947,286,51.1333,8.0348,Lennestadt-Theten,Nordrhein-Westfalen
DEA59,Olpe,5468,418,50.9377,7.8475,Wenden-Dörnscheid,Nordrhein-Westfalen
DEA5A,Siegen-Wittgenstein,386,445,51.0454,8.3851,"Berleburg, Bad",Nordrhein-Westfalen
DEA5A,Siegen-Wittgenstein,389,436,51.0148,8.4318,"Berleburg, Bad-Arfeld",Nordrhein-Westfalen
DEA5A,Siegen-Wittgenstein,390,610,50.9837,8.3683,"Berleburg, Bad-Stünzel",Nordrhein-Westfalen
DEA5A,Siegen-Wittgenstein,796,412,50.7556,8.1257,Burbach-Würgendorf,Nordrhein-Westfalen
DEA5A,Siegen-Wittgenstein,4281,635,50.9304,8.1924,Rothaargebirge,Nordrhein-Westfalen
DEA5A,Siegen-Wittgenstein,4692,229,50.8534,7.9966,Siegen (Kläranlage),Nordrhein-Westfalen
DEA5A,Siegen-Wittgenstein,7416,541,51.0112,8.2733,Birkelbach,Nordrhein-Westfalen
DEA5B,Soest,3031,92,51.6336,8.3945,Lippstadt-Bökenförde,Nordrhein-Westfalen
DEA5B,Soest,4313,370,51.4966,8.4342,Rüthen,Nordrhein-Westfalen
DEA5B,Soest,4400,171,51.5439,8.1808,"Sassendorf, Bad-Beusingsen",Nordrhein-Westfalen
DEA5B,Soest,4401,81,51.6334,8.1872,"Sassendorf, Bad-Ostinghausen",Nordrhein-Westfalen
DEA5B,Soest,5360,331,51.4319,8.2665,Warstein-Hirschberg,Nordrhein-Westfalen
DEA5B,Soest,5480,85,51.5763,7.8879,Werl,Nordrhein-Westfalen
DEA5B,Soest,6046,83,51.5801,8.0812,Soest KA,Nordrhein-Westfalen
DEA5C,Unna,6276,235,51.4895,7.7813,Fröndenberg-Hohenheide,Nordrhein-Westfalen
DEA5C,Unna,14143,54,51.6073,7.5309,Lünen-Seseke (WV NRW),Nordrhein-Westfalen
DEB11,"Koblenz, Kreisfreie Stadt",2656,96,50.3519,7.5906,Koblenz,Rheinland-Pfalz
DEB11,"Koblenz, Kreisfreie Stadt",7340,84,50.3713,7.5791,Koblenz (Falckensteinkaserne),Rheinland-Pfalz
DE925,Hildesheim,2207,91,52.1833,9.95,Hildesheim (Flugplatz),Niedersachsen
DE925,Hildesheim,7367,144,51.9643,9.8072,Alfeld,Niedersachsen
DE925,Hildesheim,13776,85,52.1789,9.9524,Hildesheim-Drispenstedt,Niedersachsen
DE925,Hildesheim,15834,93,52.1014,10.1163,Holle Kläranlage,Niedersachsen
DE925,Hildesheim,15839,75,52.1356,9.762,Poppenburg,Niedersachsen
DE925,Hildesheim,19126,88,52.1803,9.9535,Hildesheim Flughafen,Niedersachsen
DE926,Holzminden,1170,265,51.8873,9.728,Eimen-Vorwohle,Niedersachsen
DE926,Holzminden,2323,110,51.8529,9.4953,"Bevern, Kr. Holzminden",Niedersachsen
DE926,Holzminden,2324,440,51.7659,9.5447,Holzminden-Silberborn,Niedersachsen
DE926,Holzminden,3844,295,51.9473,9.3999,Ottenstein,Niedersachsen
DE927,Nienburg (Weser),3612,25,52.6711,9.2229,Nienburg,Niedersachsen
DE927,Nienburg (Weser),4112,60,52.4396,9.1335,Rehburg-Loccum,Niedersachsen
DE927,Nienburg (Weser),15831,44,52.4197,8.7303,Diepenau-Lavelsloh Klärwerk/Sulingen,Niedersachsen
DE927,Nienburg (Weser),15844,28,52.5747,9.0288,Steyerberg Klärwerk/Sulingen,Niedersachsen
DE928,Schaumburg,769,68,52.2817,9.0889,Bückeburg,Niedersachsen
DE928,Schaumburg,7425,212,52.1384,9.1119,Rinteln-Volksen,Niedersachsen
DE929,Region Hannover,294,110,52.3199,9.43,Barsinghausen-Hohenbostel,Niedersachsen
DE929,Region Hannover,2011,50,52.3965,9.6629,Hannover-Herrenhausen,Niedersachsen
DE929,Region Hannover,2012,57,52.3671,9.818999999999999,Hannover-Kirchrode,Niedersachsen
DE929,Region Hannover,2014,59,52.4644,9.6779,Hannover,Niedersachsen
DE929,Region Hannover,3558,41,52.5,9.4941,Neustadt am Rübenberge,Niedersachsen
DE929,Region Hannover,4790,98,52.2054,9.5668,Springe,Niedersachsen
DE929,Region Hannover,5148,60,52.4588,10.1888,Uetze,Niedersachsen
DE929,Region Hannover,5382,39,52.5883,9.7386,Wedemark-Elze,Niedersachsen
DE929,Region Hannover,5715,57,52.4605,9.4311,Wunstorf,Niedersachsen
DE929,Region Hannover,13699,66,52.3667,10.1266,Lehrte-Sievershausen,Niedersachsen
DE931,Celle,368,70,52.8152,9.9248,Bergen,Niedersachsen
DE931,Celle,848,38,52.6146,10.0726,Celle (Stadt),Niedersachsen
DE931,Celle,850,39,52.5959,10.0296,Celle,Niedersachsen
DE931,Celle,1339,73,52.9157,10.1885,Faßberg,Niedersachsen
DE931,Celle,7361,72,52.7363,10.344000000000001,Scharnhorst-Marwede,Niedersachsen
DE932,Cuxhaven,891,5,53.8713,8.7058,Cuxhaven,Niedersachsen
DE932,Cuxhaven,2822,25,53.6369,9.0979,Lamstedt,Niedersachsen
DE932,Cuxhaven,2844,13,53.6956,8.6291,"Langen-Holßel, Kreis Cuxhaven",Niedersachsen
DE932,Cuxhaven,3639,25,53.7647,8.6583,Nordholz (Flugplatz),Niedersachsen
DE932,Cuxhaven,4841,1,53.6946,8.8735,"Steinau, Kr. Cuxhaven",Niedersachsen
DE932,Cuxhaven,4920,3,53.4252,8.804,Beverstedt,Niedersachsen
DE80J,Mecklenburgische Seenplatte,129,33,53.6893,13.242,Altentreptow,Mecklenburg-Vorpommern
DE80J,Mecklenburgische Seenplatte,305,53,53.7333,12.9333,Basepohl,Mecklenburg-Vorpommern
DE80J,Mecklenburgische Seenplatte,1669,43,53.808,12.9608,Borrentin-Wolkwitz,Mecklenburg-Vorpommern
DE80J,Mecklenburgische Seenplatte,3297,64,53.2681,12.7221,Krümmel,Mecklenburg-Vorpommern
DE80J,Mecklenburgische Seenplatte,3478,81,53.5468,13.1914,Neubrandenburg,Mecklenburg-Vorpommern
DE80J,Mecklenburgische Seenplatte,3577,64,53.3585,13.0502,Neustrelitz,Mecklenburg-Vorpommern
DE80J,Mecklenburgische Seenplatte,5109,69,53.5997,13.3039,Trollenhagen,Mecklenburg-Vorpommern
DE80J,Mecklenburgische Seenplatte,5349,73,53.5196,12.6654,Waren (Müritz),Mecklenburg-Vorpommern
DE80J,Mecklenburgische Seenplatte,5663,118,53.4618,13.6099,Woldegk,Mecklenburg-Vorpommern
DE80J,Mecklenburgische Seenplatte,5854,24,53.6557,13.5369,Friedland,Mecklenburg-Vorpommern
DE80J,Mecklenburgische Seenplatte,6106,62,53.3311,12.7149,Rechlin,Mecklenburg-Vorpommern
DE80J,Mecklenburgische Seenplatte,7077,54,53.5255,13.0161,Groß Lukow,Mecklenburg-Vorpommern
DE80J,Mecklenburgische Seenplatte,7351,116,53.3175,13.4175,Feldberg/Mecklenburg,Mecklenburg-Vorpommern
DE933,Harburg,760,82,53.3629,9.9435,Rosengarten-Klecken,Niedersachsen
DE933,Harburg,2689,40,53.2279,9.6527,Königsmoor,Niedersachsen
DE934,Lüchow-Dannenberg,3093,16,52.9724,11.1374,Lüchow,Niedersachsen
DE934,Lüchow-Dannenberg,5762,83,53.0704,10.8831,Zernien,Niedersachsen
DE934,Lüchow-Dannenberg,5832,50,53.1007,11.0455,Dannenberg,Niedersachsen
DE935,"Lüneburg, Landkreis",152,57,53.1268,10.2184,Amelinghausen,Niedersachsen
DE935,"Lüneburg, Landkreis",542,12,53.2401,10.8522,Bleckede-Walmsburg,Niedersachsen
DE935,"Lüneburg, Landkreis",3103,11,53.2657,10.424000000000001,Lüneburg,Niedersachsen
DE935,"Lüneburg, Landkreis",6093,62,53.2139,10.4704,Wendisch Evern,Niedersachsen
DE935,"Lüneburg, Landkreis",15512,66,53.0859,10.1611,Rehlingen-Ehlbeck,Niedersachsen
DE936,Osterholz,4594,1,53.2338,8.5115,Schwanewede-Neuenkirchen,Niedersachsen
DE936,Osterholz,5014,7,53.2758,8.9857,Worpswede-Hüttenbusch,Niedersachsen
DE937,Rotenburg (Wümme),703,5,53.4779,9.1553,Bremervörde (A),Niedersachsen
DE937,Rotenburg (Wümme),704,11,53.4451,9.139,Bremervörde,Niedersachsen
DE937,Rotenburg (Wümme),705,5,53.5312,9.1664,Bremervörde-Niederochtenhausen,Niedersachsen
DE937,Rotenburg (Wümme),4275,32,53.1288,9.3398,Rotenburg (Wümme),Niedersachsen
DE937,Rotenburg (Wümme),5767,27,53.2989,9.3352,Heeslingen-Wiersdorf,Niedersachsen
DE937,Rotenburg (Wümme),6189,34,53.1333,9.35,Rotenburg (Wümme) (Flugplatz),Niedersachsen
DE938,Heidekreis,1336,70,52.8568,9.6756,"Fallingbostel, Bad",Niedersachsen
DE938,Heidekreis,3421,84,53.0013,10.1349,Munster/Heide,Niedersachsen
DE938,Heidekreis,4601,28,52.6797,9.6524,Essel,Niedersachsen
DE938,Heidekreis,4745,75,52.9604,9.793,Soltau,Niedersachsen
DE938,Heidekreis,4883,18,52.7659,9.4046,Frankenfeld-Hedern,Niedersachsen
DE938,Heidekreis,15842,81,53.097,9.8502,Schneverdingen Alfred Töpfer Akademie,Niedersachsen
DE939,Stade,1056,1,53.7118,9.3791,Drochtersen,Niedersachsen
DE939,Stade,1451,2,53.8277,9.2493,Freiburg/Elbe,Niedersachsen
DE939,Stade,2464,1,53.5316,9.6752,Jork,Niedersachsen
DE939,Stade,2465,1,53.5083,9.7376,Jork-Moorende,Niedersachsen
DE939,Stade,3843,21,53.45,9.6667,Ottensen,Niedersachsen
DE939,Stade,4857,1,53.5534,9.6097,Mittelnkirchen-Hohenfelde,Niedersachsen
DE939,Stade,6108,7,53.7197,9.4192,Ruthenstrom,Niedersachsen
DE93A,Uelzen,5146,50,52.9414,10.5289,Uelzen,Niedersachsen
DE93A,Uelzen,5308,72,52.8009,10.7562,Waldhof (Lüneburger Heide UBA),Niedersachsen
DE93A,Uelzen,15845,68,52.8981,10.4438,Suderburg,Niedersachsen
DE93B,Verden,3848,17,53.1403,9.1517,Ottersberg-Otterstedt,Niedersachsen
DE93B,Verden,5208,46,52.9667,9.2833,Verden (WW-Panzenberg),Niedersachsen
DE93B,Verden,5209,21,52.9586,9.2269,Verden-Dauelsen,Niedersachsen
DE93B,Verden,15835,35,52.9247,9.4068,Kirchlinteln/Verden Wasserwerk,Niedersachsen
DE942,"Emden, Kreisfreie Stadt",1219,5,53.3449,7.1909,Emden-Nesserland,Niedersachsen
DE942,"Emden, Kreisfreie Stadt",1221,0,53.3707,7.2236,Emden-Wolthusen,Niedersachsen
DE942,"Emden, Kreisfreie Stadt",5839,0,53.3881,7.2287,Emden,Niedersachsen
DE943,"Oldenburg (Oldenburg), Kreisfreie Stadt",3790,5,53.1018,8.2516,Oldenburg (A),Niedersachsen
DE943,"Oldenburg (Oldenburg), Kreisfreie Stadt",3791,11,53.1763,8.1824,Oldenburg,Niedersachsen
DE80K,Landkreis Rostock,312,52,53.8149,11.8818,Baumgarten,Mecklenburg-Vorpommern
DE80K,Landkreis Rostock,1000,3,54.1442,11.8454,"Doberan, Bad-Heiligendamm",Mecklenburg-Vorpommern
DE80K,Landkreis Rostock,1803,34,54.0714,12.3238,Groß Lüsewitz,Mecklenburg-Vorpommern
DE80K,Landkreis Rostock,1888,10,53.8119,12.114,Parum,Mecklenburg-Vorpommern
DE80K,Landkreis Rostock,2749,52,54.0805,11.7425,Gersdorf,Mecklenburg-Vorpommern
DE80K,Landkreis Rostock,2796,40,53.9156,12.279000000000002,Laage (Flugplatz),Mecklenburg-Vorpommern
DE80K,Landkreis Rostock,5009,38,53.761,12.5574,Teterow,Mecklenburg-Vorpommern
DE80K,Landkreis Rostock,6101,51,54.1323,11.6719,Bastorf-Kägsdorf (SWN),Mecklenburg-Vorpommern
DE80K,Landkreis Rostock,15189,12,53.8281,12.5936,Sukow-Levitzow,Mecklenburg-Vorpommern
DE944,"Osnabrück, Kreisfreie Stadt",3815,95,52.2553,8.0534,Osnabrück,Niedersachsen
DE945,"Wilhelmshaven, Kreisfreie Stadt",4678,1,53.5833,8.0333,Sengwarden,Niedersachsen
DE946,Ammerland,4078,16,53.2427,8.2237,Rastede,Niedersachsen
DE946,Ammerland,5518,7,53.2504,7.935,Westerstede,Niedersachsen
DE947,Aurich,243,4,53.4621,7.4670000000000005,Aurich,Niedersachsen
DE947,Aurich,1030,1,53.646,7.4302,Dornum,Niedersachsen
DE947,Aurich,2763,1,53.5039,7.1217,Norden-Leybuchtpolder,Niedersachsen
DE947,Aurich,3631,12,53.7123,7.1519,Norderney,Niedersachsen
DE947,Aurich,6221,6,53.5084,7.0781,Krummhörn (Hooge),Niedersachsen
DE948,Cloppenburg,865,42,52.8441,8.0624,Cloppenburg,Niedersachsen
DE948,Cloppenburg,1503,6,53.0643,7.9022,Friesoythe-Altenoythe,Niedersachsen
DE948,Cloppenburg,3044,22,52.7198,7.7472,Löningen,Niedersachsen
DE948,Cloppenburg,3046,20,52.7333,7.7333,Löningen-Schnetlage,Niedersachsen
DE949,Emsland,1010,5,52.9732,7.3209,Dörpen (Kläranlage),Niedersachsen
DE949,Emsland,1792,27,52.7553,7.4815,Groß Berßen,Niedersachsen
DE949,Emsland,3023,22,52.5181,7.3081,Lingen,Niedersachsen
DE949,Emsland,3254,19,52.7156,7.3176,Meppen,Niedersachsen
DE949,Emsland,3868,1,53.0802,7.3845,Papenburg-Weißenburg,Niedersachsen
DE949,Emsland,5132,19,52.7432,7.075,Twist-Hebelermeer,Niedersachsen
DE949,Emsland,6159,8,52.9542,7.3196,Dörpen,Niedersachsen
DE94A,Friesland (DE),561,11,53.367,7.9679,Bockhorn-Grabstede,Niedersachsen
DE94A,Friesland (DE),2456,7,53.5322,7.8806,Jever,Niedersachsen
DE94A,Friesland (DE),5344,2,53.7865,7.9096,Wangerooge,Niedersachsen
DE94A,Friesland (DE),6157,8,53.641000000000005,8.0808,Wangerland-Hooksiel,Niedersachsen
DE94B,Grafschaft Bentheim,357,50,52.3018,7.1301,"Bentheim, Bad",Niedersachsen
DE94B,Grafschaft Bentheim,1223,13,52.5983,6.9449,Ringe-Großringe,Niedersachsen
DE94B,Grafschaft Bentheim,3640,24,52.4124,7.064,Nordhorn-Blanke,Niedersachsen
DE94C,Leer,619,12,53.5788,6.6703,Borkum-Süderstraße,Niedersachsen
DE94C,Leer,1014,2,53.2289,7.2191,Dollart-Kanalpolder,Niedersachsen
DE94C,Leer,3342,0,53.31100000000001,7.4329,Moormerland-Neermoor,Niedersachsen
DE94C,Leer,7373,3,53.5984,6.7024,Borkum-Flugplatz,Niedersachsen
DE94D,"Oldenburg, Landkreis",44,44,52.9336,8.237,Großenkneten,Niedersachsen
DE94D,"Oldenburg, Landkreis",1829,38,52.9432,8.2105,Großenkneten-Sage,Niedersachsen
DE94D,"Oldenburg, Landkreis",2355,4,53.1228,8.4205,Hude/Oldenburg,Niedersachsen
DE406,Dahme-Spreewald,427,46,52.3807,13.5306,Berlin-Schönefeld,Brandenburg
DE406,Dahme-Spreewald,2997,47,51.9861,14.3044,Lieberose,Brandenburg
DE406,Dahme-Spreewald,3082,56,51.9333,13.8833,Lübben,Brandenburg
DE406,Dahme-Spreewald,3083,57,51.9267,13.8797,Lübben-Blumenfelde,Brandenburg
DE406,Dahme-Spreewald,13712,44,52.1488,13.8359,Münchehofe,Brandenburg
DE407,Elbe-Elster,1001,97,51.6451,13.5747,Doberlug-Kirchhain,Brandenburg
DE407,Elbe-Elster,1210,90,51.4505,13.5046,Elsterwerda,Brandenburg
DE407,Elbe-Elster,2278,131,51.763999999999996,13.47,Hohenbucko,Brandenburg
DE407,Elbe-Elster,2315,81,51.7657,13.1666,Holzdorf (Flugplatz),Sachsen-Anhalt
DE911,"Braunschweig, Kreisfreie Stadt",662,81,52.2915,10.4464,Braunschweig,Niedersachsen
DE911,"Braunschweig, Kreisfreie Stadt",15833,65,52.3366,10.4884,Harxbüttel Pegel,Niedersachsen
DE913,"Wolfsburg, Kreisfreie Stadt",5675,56,52.4411,10.7587,Wolfsburg,Niedersachsen
DE913,"Wolfsburg, Kreisfreie Stadt",5676,82,52.3962,10.6892,Wolfsburg (Südwest),Niedersachsen
DE913,"Wolfsburg, Kreisfreie Stadt",6277,66,52.4167,10.6667,Wolfsburg (Schleuse),Niedersachsen
DE912,"Salzgitter, Kreisfreie Stadt",4361,141,52.0333,10.35,Salzgitter-Hohenrode (A),Niedersachsen
DE912,"Salzgitter, Kreisfreie Stadt",15840,77,52.1887,10.3696,Salzgitter-Lebenstedt Kläranlage,Niedersachsen
DE246,"Bayreuth, Landkreis",49,398,49.8383,11.4072,Ahorntal-Weiher,Bayern
DE246,"Bayreuth, Landkreis",227,432,49.8823,11.2656,Aufseß-Hochstahl,Bayern
DE246,"Bayreuth, Landkreis",320,350,49.9667,11.5197,Heinersreuth-Vollhof,Bayern
DE246,"Bayreuth, Landkreis",508,675,50.0539,11.8149,Bischofsgrün,Bayern
DE246,"Bayreuth, Landkreis",885,450,49.8449,11.616,Creußen-Bühl,Bayern
DE246,"Bayreuth, Landkreis",1357,654,49.9807,11.8376,Fichtelberg/Oberfranken-Hüttstadl,Bayern
DE246,"Bayreuth, Landkreis",3752,1014,50.03,11.8074,Ochsenkopf,Bayern
DE246,"Bayreuth, Landkreis",3886,420,49.7408,11.5553,Pegnitz (Kläranlage),Bayern
DE246,"Bayreuth, Landkreis",3948,443,49.648999999999994,11.4686,Plech,Bayern
DE246,"Bayreuth, Landkreis",6204,575,49.9997,11.7842,Warmensteinach (Freizeithaus),Bayern
DE247,"Coburg, Landkreis",867,344,50.3066,10.9679,Lautertal-Oberlauter,Bayern
DE247,"Coburg, Landkreis",2431,367,50.1337,10.9317,Itzgrund-Herreth,Bayern
DE247,"Coburg, Landkreis",3220,450,50.3564,10.8828,Meeder-Ottowind,Bayern
DE247,"Coburg, Landkreis",3572,330,50.3198,11.1104,Neustadt bei Coburg (Kläranlage),Bayern
DE247,"Coburg, Landkreis",4218,300,50.3313,10.7924,Rodach (Kläranlage),Bayern
DE247,"Coburg, Landkreis",6249,350,50.3482,11.0304,Rödental-Schönstädt (Speicher),Bayern
DE248,Forchheim,1689,443,49.7656,11.3061,Gößweinstein,Bayern
DE248,Forchheim,1721,506,49.663999999999994,11.2239,Gräfenberg-Kasberg,Bayern
DE265,Bad Kissingen,739,288,50.3041,9.7499,"Brückenau, Bad",Bayern
DE265,Bad Kissingen,1997,220,50.1219,9.9079,Hammelburg,Bayern
DE265,Bad Kissingen,2597,282,50.224,10.0792,"Kissingen, Bad",Bayern
DE265,Bad Kissingen,3207,326,50.1797,10.272,Maßbach,Bayern
DE265,Bad Kissingen,3700,472,50.2661,9.7727,Oberleichtersbach-Modlos,Bayern
DE266,Rhön-Grabfeld,2680,289,50.284,10.4456,"Königshofen, Bad",Bayern
DE266,Rhön-Grabfeld,3560,230,50.3039,10.176,"Neustadt, Bad",Bayern
DE266,Rhön-Grabfeld,3836,312,50.4538,10.2211,Ostheim v.d. Rhön,Bayern
DE266,Rhön-Grabfeld,4377,518,50.3518,10.0034,Sandberg,Bayern
DE266,Rhön-Grabfeld,4958,333,50.2417,10.567,Sulzdorf an der Lederhecke,Bayern
DE266,Rhön-Grabfeld,7392,304,50.3332,10.4487,Aubstadt,Bayern
DE267,Haßberge,814,270,50.1451,10.7066,Pfarrweisach-Lohr (Pegel),Bayern
DE267,Haßberge,2055,292,50.0493,10.4947,Haßfurt,Bayern
DE267,Haßberge,3681,426,49.9185,10.5963,Oberaurach-Fatschenbrunn,Bayern
DE267,Haßberge,6200,259,50.0786,10.4887,Königsberg/Bayern-Holzhausen,Bayern
DE267,Haßberge,7430,258,50.0615,10.8129,Rentweinsdorf-Treinfeld,Bayern
DE111,"Stuttgart, Stadtkreis",4926,224,48.7896,9.2167,Stuttgart (Neckartal),Baden-Württemberg
DE111,"Stuttgart, Stadtkreis",4927,286,48.7693,9.1814,Stuttgart-Stadt,Baden-Württemberg
DE111,"Stuttgart, Stadtkreis",4928,314,48.8281,9.2,Stuttgart (Schnarrenberg),Baden-Württemberg
DE111,"Stuttgart, Stadtkreis",4929,311,48.8333,9.2,Stuttgart (Schnarrenberg Aero),Baden-Württemberg
DE111,"Stuttgart, Stadtkreis",4933,401,48.7091,9.2147,Stuttgart-Hohenheim,Baden-Württemberg
DE12C,Freudenstadt,268,622,48.5293,8.2727,Baiersbronn-Obertal,Baden-Württemberg
DE12C,Freudenstadt,269,596,48.5116,8.3176,Baiersbronn-Mitteltal,Baden-Württemberg
DE12C,Freudenstadt,1467,736,48.4607,8.4141,Freudenstadt-Kurgarten,Baden-Württemberg
DE12C,Freudenstadt,1468,797,48.4538,8.408999999999999,Freudenstadt,Baden-Württemberg
DE12C,Freudenstadt,4211,493,48.4245,8.3303,"Rippoldsau, Bad",Baden-Württemberg
DE12C,Freudenstadt,4655,804,48.6,8.4333,Seewald-Besenfeld,Baden-Württemberg
DE12C,Freudenstadt,5289,595,48.4918,8.5612,Waldachtal-Lützenhardt,Baden-Württemberg
DE12C,Freudenstadt,7240,567,48.4692,8.6304,Horb-Altheim (LUBW),Baden-Württemberg
DE12C,Freudenstadt,7488,538,48.3846,8.4787,Betzweiler-Wälde,Baden-Württemberg
DE131,"Freiburg im Breisgau, Stadtkreis",1443,237,48.0232,7.8343,Freiburg,Baden-Württemberg
DE131,"Freiburg im Breisgau, Stadtkreis",13667,274,48.0006,7.845,Freiburg-Mitte,Baden-Württemberg
DE132,Breisgau-Hochschwarzwald,259,273,47.8064,7.6387,Müllheim,Baden-Württemberg
DE132,Breisgau-Hochschwarzwald,534,250,48.05,7.6333,Blankenhornsberg,Baden-Württemberg
DE132,Breisgau-Hochschwarzwald,674,194,48.0222,7.5845,Breisach,Baden-Württemberg
DE132,Breisgau-Hochschwarzwald,675,218,48.0333,7.6,Breisach-Eckartsberg,Baden-Württemberg
DE132,Breisgau-Hochschwarzwald,684,1001,47.9385,8.0761,Breitnau,Baden-Württemberg
DE132,Breisgau-Hochschwarzwald,706,234,47.8858,7.6611,Eschbach,Baden-Württemberg
DE132,Breisgau-Hochschwarzwald,757,445,47.9625,7.9983,Buchenbach,Baden-Württemberg
DE132,Breisgau-Hochschwarzwald,1176,976,47.9634,8.2693,Eisenbach,Baden-Württemberg
DE132,Breisgau-Hochschwarzwald,1346,1490,47.8749,8.0038,Feldberg/Schwarzwald,Baden-Württemberg
DE132,Breisgau-Hochschwarzwald,1347,962,47.8555,8.1155,Feldberg-Altglashütten,Baden-Württemberg
DE132,Breisgau-Hochschwarzwald,1481,928,47.9216,8.2547,Friedenweiler,Baden-Württemberg
DE132,Breisgau-Hochschwarzwald,2228,883,47.8983,8.1055,Hinterzarten,Baden-Württemberg
DE132,Breisgau-Hochschwarzwald,2388,193,48.0419,7.6322,Ihringen,Baden-Württemberg
DE132,Breisgau-Hochschwarzwald,2757,238,47.9077,7.702000000000001,"Krozingen, Bad",Baden-Württemberg
DE132,Breisgau-Hochschwarzwald,2758,202,47.9585,7.6578,"Krozingen, Bad-Hausen",Baden-Württemberg
DE132,Breisgau-Hochschwarzwald,2953,852,47.8597,8.2308,Lenzkirch-Ruhbühl,Baden-Württemberg
DE132,Breisgau-Hochschwarzwald,2954,990,47.8919,8.1788,Lenzkirch-Saig,Baden-Württemberg
DE132,Breisgau-Hochschwarzwald,3001,284,48.0674,7.6770000000000005,Liliental,Baden-Württemberg
DE132,Breisgau-Hochschwarzwald,3256,193,48.0167,7.6667,Merdingen,Baden-Württemberg
DE132,Breisgau-Hochschwarzwald,3493,223,47.8333,7.5833,Neuenburg-Zinken,Baden-Württemberg
DE132,Breisgau-Hochschwarzwald,3702,515,47.878,7.8288,Münstertal-Obermünstertal,Baden-Württemberg
DE132,Breisgau-Hochschwarzwald,4419,212,47.9556,7.7134,Schallstadt-Mengen,Baden-Württemberg
DE132,Breisgau-Hochschwarzwald,4424,1205,47.9139,7.9083,Schauinsland (UBA),Baden-Württemberg
DE132,Breisgau-Hochschwarzwald,4477,993,47.8208,8.186,Schluchsee,Baden-Württemberg
DE132,Breisgau-Hochschwarzwald,4837,363,47.9869,7.9466,Stegen,Baden-Württemberg
DE132,Breisgau-Hochschwarzwald,5047,870,47.9394,8.1933,Titisee-Neustadt-Langenordnach,Baden-Württemberg
DE132,Breisgau-Hochschwarzwald,5048,843,47.9167,8.2,Titisee-Neustadt-Neustadt (Le,Baden-Württemberg
DE132,Breisgau-Hochschwarzwald,5049,846,47.8991,8.146,Titisee-Neustadt-Titisee,Baden-Württemberg
DE132,Breisgau-Hochschwarzwald,6256,201,47.91,7.5838,Bremgarten (Fessenheim),Baden-Württemberg
DE132,Breisgau-Hochschwarzwald,15014,918,47.9761,8.1751,Titisee-Neustadt-Waldau,Baden-Württemberg
DE147,Bodenseekreis,931,708,47.8007,9.4108,Deggenhausertal-Azenweiler,Baden-Württemberg
DE147,Bodenseekreis,1276,408,47.6358,9.5392,Eriskirch-Mariabrunn,Baden-Württemberg
DE147,Bodenseekreis,1490,394,47.6454,9.4795,Friedrichshafen,Baden-Württemberg
DE147,Bodenseekreis,5138,446,47.7713,9.1562,Überlingen/Bodensee,Baden-Württemberg
DE147,Bodenseekreis,6107,705,47.8076,9.1035,Sipplingen (SWN),Baden-Württemberg
DE147,Bodenseekreis,6258,459,47.6845,9.4409,Friedrichshafen-Unterraderach,Baden-Württemberg
DE148,Ravensburg,2423,712,47.6894,10.0416,Isny,Baden-Württemberg
DE148,Ravensburg,4094,440,47.8062,9.6206,"Weingarten, Kr. Ravensburg",Baden-Württemberg
DE148,Ravensburg,4095,494,47.7674,9.555,Ravensburg-Bavendorf,Baden-Württemberg
DE148,Ravensburg,5319,576,47.9167,9.7076,"Waldsee, Bad-Reute",Baden-Württemberg
DE148,Ravensburg,5665,677,47.818000000000005,9.797,Wolfegg,Baden-Württemberg
DE148,Ravensburg,5993,653,47.7595,9.7724,Vogt,Baden-Württemberg
DE148,Ravensburg,7135,565,47.9655,9.6804,Aulendorf-Haslach,Baden-Württemberg
DE148,Ravensburg,7224,570,47.9324,9.5512,Altshausen,Baden-Württemberg
DE148,Ravensburg,7226,640,47.7777,9.887,"Kißlegg, Kr. Ravensburg",Baden-Württemberg
DE148,Ravensburg,7382,666,47.7095,9.8659,Wangen/Allgäu-Schwaderberg,Baden-Württemberg
DE148,Ravensburg,7403,672,47.7955,10.0324,Leutkirch-Herlazhofen,Baden-Württemberg
DE148,Ravensburg,15810,566,47.9261,9.5926,Aulendorf-Blönried,Baden-Württemberg
DE149,Sigmaringen,3247,567,48.0557,9.3185,Mengen-Ennetach,Baden-Württemberg
DE149,Sigmaringen,3927,630,47.9344,9.2869,Pfullendorf,Baden-Württemberg
DE149,Sigmaringen,4623,834,48.1043,8.9958,"Schwenningen, Kreis Sigmaringen",Baden-Württemberg
DE149,Sigmaringen,4702,645,48.1,9.25,Sigmaringen (Flugplatz),Baden-Württemberg
DE149,Sigmaringen,4703,580,48.0719,9.1942,Sigmaringen-Laiz,Baden-Württemberg
DE149,Sigmaringen,7487,576,48.0272,9.486,"Saulgau,Bad",Baden-Württemberg
DE211,"Ingolstadt, Kreisfreie Stadt",2409,360,48.7662,11.4539,Ingolstadt (Flussmeisterstelle),Bayern
DE21K,"Rosenheim, Landkreis",154,516,48.0197,12.2925,Amerang-Pfaffing,Bayern
DE21K,"Rosenheim, Landkreis",205,681,47.7275,12.2982,Aschau-Stein,Bayern
DE21K,"Rosenheim, Landkreis",653,483,47.7241,12.1092,Brannenburg-Degerndorf,Bayern
DE21K,"Rosenheim, Landkreis",857,536,47.8678,12.3951,Chiemsee-Herrenchiemsee,Bayern
DE21K,"Rosenheim, Landkreis",1343,530,47.7956,12.0161,"Feilnbach, Bad",Bayern
DE21K,"Rosenheim, Landkreis",1844,517,47.9411,11.9004,Feldkirchen-Westerham-Lenzmühle,Bayern
DE21K,"Rosenheim, Landkreis",2563,490,47.6299,12.1802,Kiefersfelden (Blaik),Bayern
DE21K,"Rosenheim, Landkreis",3679,518,47.6187,12.1665,Kiefersfelden-Gach,Bayern
DE21K,"Rosenheim, Landkreis",4374,687,47.7774,12.2102,Samerberg-Geisenkam,Bayern
DE21K,"Rosenheim, Landkreis",5249,464,47.95,12.1833,Vogtareuth (A),Bayern
DE21K,"Rosenheim, Landkreis",6211,464,47.955,12.1735,Vogtareuth (Kläranlage),Bayern
DE21K,"Rosenheim, Landkreis",15520,656,47.818999999999996,12.2956,Frasdorf-Greimelberg,Bayern
DE21L,Starnberg,1642,550,48.1085,11.2781,Gilching,Bayern
DE21L,Starnberg,6238,675,47.9946,11.269,Starnberg-Perchting,Bayern
DE21M,Traunstein,856,551,47.8843,12.5404,Chieming,Bayern
DE21M,Traunstein,1237,507,48.089,12.5073,Tacherting-Spreit,Bayern
DE21M,Traunstein,2412,690,47.7614,12.7532,Inzell,Bayern
DE21M,Traunstein,2573,470,47.9588,12.7717,Waging am See-Schnöbling,Bayern
DE21M,Traunstein,4091,1640,47.7327,12.6827,Rauschberg bei Ruhpolding,Bayern
DE21M,Traunstein,4318,692,47.731,12.661,Ruhpolding,Bayern
DE21M,Traunstein,4827,540,47.7941,12.485999999999999,Grassau,Bayern
DE21M,Traunstein,5055,382,48.0669,12.7634,Tittmoning,Bayern
DE21M,Traunstein,5074,626,47.8663,12.6566,Traunstein-Sparz,Bayern
DE21M,Traunstein,5111,560,48.0311,12.5396,Trostberg,Bayern
DE21M,Traunstein,5171,647,47.7105,12.4652,Unterwössen-Hinterwössen,Bayern
DE21M,Traunstein,5276,476,47.9237,12.7558,Waging am See,Bayern
DE21M,Traunstein,5941,686,47.6754,12.4698,Reit im Winkl,Bayern
DE21M,Traunstein,5942,680,47.6755,12.4666,Reit im Winkl (Tirolerstr.),Bayern
DE21M,Traunstein,6299,650,47.7733,12.6441,Ruhpolding (Kläranlage),Bayern
DE21M,Traunstein,7105,719,47.835,12.6548,Siegsdorf-Höll,Bayern
DE21M,Traunstein,19128,506,47.98,12.5479,Traunreut-Stein,Bayern
DE235,Cham,851,392,49.2504,12.6042,Pemfling-Pitzling,Bayern
DE235,Cham,852,430,49.2123,12.5668,Cham-Wulfing,Bayern
DE235,Cham,3525,460,49.2584,12.9603,Neukirchen bei Heiligen Blut,Bayern
DE235,Cham,4224,388,49.2412,12.4125,Roding-Neubäu,Bayern
DE235,Cham,4225,373,49.2195,12.536,Roding-Wetterfeld,Bayern
DE235,Cham,4559,398,49.1644,12.6175,Schorndorf-Knöbling,Bayern
DE235,Cham,5036,470,49.4038,12.6062,Treffelstein-Witzelsmühle,Bayern
DE235,Cham,5401,424,49.2717,12.7451,"Weiding, Kreis Cham-Dalking",Bayern
DE235,Cham,6215,689,49.2154,13.0662,Lam-Lambach,Bayern
DE235,Cham,7370,499,49.391000000000005,12.6838,Waldmünchen,Bayern
DE236,Neumarkt i. d. OPf.,360,403,49.1115,11.4328,Berching,Bayern
DE236,Neumarkt i. d. OPf.,1473,414,49.1869,11.308,Freystadt-Michelbach,Bayern
DE236,Neumarkt i. d. OPf.,3534,583,49.2712,11.4882,Neumarkt-Höhenberg,Bayern
DE236,Neumarkt i. d. OPf.,3536,420,49.2831,11.4528,Neumarkt/Oberpfalz,Bayern
DE236,Neumarkt i. d. OPf.,3875,549,49.151,11.6896,Parsberg/Oberpfalz-Eglwang,Bayern
DE237,Neustadt a. d. Waldnaab,1292,470,49.7522,11.8222,Eschenbach/Oberpfalz,Bayern
DE237,Neustadt a. d. Waldnaab,1392,621,49.7316,12.3489,Flossenbürg,Bayern
DE237,Neustadt a. d. Waldnaab,3571,452,49.8174,11.8638,Neustadt am Kulm-Filchendorf,Bayern
DE237,Neustadt a. d. Waldnaab,3999,595,49.7845,12.0329,Pressath-Mühlberg,Bayern
DE237,Neustadt a. d. Waldnaab,5285,501,49.618,12.4895,Waidhaus-Pfrentsch,Bayern
DE249,"Hof, Landkreis",2119,650,50.238,11.7033,Helmbrechts,Bayern
DE249,"Hof, Landkreis",4109,586,50.2214,12.0275,Rehau,Bayern
DE249,"Hof, Landkreis",4818,597,50.1531,11.7402,Stammbach-Querenbach,Bayern
DE249,"Hof, Landkreis",6338,605,50.3618,11.6223,"Steben, Bad",Bayern
DE24A,Kronach,2750,312,50.2523,11.3209,Kronach,Bayern
DE24A,Kronach,3080,520,50.5131,11.3665,Ludwigsstadt-Lauenstein,Bayern
DE24A,Kronach,5017,633,50.4002,11.3889,Teuschnitz,Bayern
DE24B,Kulmbach,3497,336,50.1226,11.5596,Ludwigschorgast,Bayern
DE24B,Kulmbach,4000,640,50.2277,11.5486,Presseck,Bayern
DE24B,Kulmbach,5034,513,49.9842,11.4008,Thurnau-Tannfeld,Bayern
DE24C,Lichtenfels,812,278,50.1429,11.2322,Burgkunstadt,Bayern
DE24C,Lichtenfels,1359,705,50.0242,11.2219,Fichtelberg/Ofr,Bayern
DE24C,Lichtenfels,5434,317,50.0858,11.2364,Weismain,Bayern
DE25C,Weißenburg-Gunzenhausen,1902,413,49.1273,10.7448,Gunzenhausen (Altmühlsee),Bayern
DE25C,Weißenburg-Gunzenhausen,2064,449,49.184,10.8243,Haundorf-Obererlbach,Bayern
DE25C,Weißenburg-Gunzenhausen,3922,435,49.1162,10.8598,Pfofeld-Langlau,Bayern
DE25C,Weißenburg-Gunzenhausen,3950,380,49.1248,10.9731,Pleinfeld-Mandlesmühle,Bayern
DE25C,Weißenburg-Gunzenhausen,3972,510,48.9343,10.7586,Polsingen-Döckingen,Bayern
DE25C,Weißenburg-Gunzenhausen,5440,439,49.0115,10.9308,Weißenburg-Emetzheim,Bayern
DE25C,Weißenburg-Gunzenhausen,6096,416,49.1423,10.7301,Altmühlsee,Bayern
DE263,"Würzburg, Kreisfreie Stadt",5703,170,49.7964,9.8949,Würzburg (Klärwerk),Bayern
DE263,"Würzburg, Kreisfreie Stadt",5705,268,49.7704,9.9576,Würzburg,Bayern
DE264,"Aschaffenburg, Landkreis",685,585,49.9017,9.4281,Breitsol,Bayern
DE264,"Aschaffenburg, Landkreis",1851,110,49.9229,9.0904,Großostheim,Bayern
DE264,"Aschaffenburg, Landkreis",2109,450,50.0664,9.3458,Heinrichsthal,Bayern
DE264,"Aschaffenburg, Landkreis",2480,107,50.0643,8.993,Kahl/Main,Bayern
DE264,"Aschaffenburg, Landkreis",5393,470,49.8922,9.3975,Weibersbrunn-Rohrbrunn,Bayern
DE212,"München, Kreisfreie Stadt",3379,515,48.1631,11.5429,München-Stadt,Bayern
DE212,"München, Kreisfreie Stadt",3382,521,48.1441,11.6,München-Bogenhausen,Bayern
DE212,"München, Kreisfreie Stadt",3385,515,48.166000000000004,11.5011,München-Nymphenburg,Bayern
DE212,"München, Kreisfreie Stadt",3390,529,48.1369,11.7094,München-Riem,Bayern
DE213,"Rosenheim, Kreisfreie Stadt",4261,442,47.8753,12.128,Rosenheim,Bayern
DE133,Emmendingen,1214,440,48.2012,8.1089,Elzach-Fisnacht,Baden-Württemberg
DE133,Emmendingen,1224,201,48.1378,7.8351,Emmendingen-Mundingen,Baden-Württemberg
DE133,Emmendingen,1440,481,48.2018,7.9336,Freiamt-Ottoschwanden,Baden-Württemberg
DE133,Emmendingen,4712,419,48.0821,8.0919,Simonswald-Obersimonswald,Baden-Württemberg
DE133,Emmendingen,5453,173,48.188,7.6977,Weisweil-Waldeckhof,Baden-Württemberg
DE133,Emmendingen,7243,303,48.1372,8.0097,Winden,Baden-Württemberg
DE134,Ortenaukreis,1089,196,48.5017,7.9943,Durbach-Ebersweier,Baden-Württemberg
DE134,Ortenaukreis,1602,176,48.4329,7.9931,Ohlsbach,Baden-Württemberg
DE134,Ortenaukreis,2050,220,48.2766,8.0842,Haslach im Kinzigtal,Baden-Württemberg
DE134,Ortenaukreis,2349,1138,48.6136,8.2033,Hornisgrinde,Baden-Württemberg
DE134,Ortenaukreis,2546,141,48.5576,7.88,Kehl-Odelshofen,Baden-Württemberg
DE134,Ortenaukreis,2812,156,48.3647,7.827999999999999,Lahr,Baden-Württemberg
DE134,Ortenaukreis,3690,372,48.3862,8.1426,Oberharmersbach,Baden-Württemberg
DE134,Ortenaukreis,3802,315,48.4765,8.1624,Oppenau,Baden-Württemberg
DE134,Ortenaukreis,4169,131,48.6703,7.9939,Rheinau-Memprechtshofen,Baden-Württemberg
DE134,Ortenaukreis,4315,916,48.5615,8.2229,Baiersbronn-Ruhestein,Baden-Württemberg
DE134,Ortenaukreis,5664,291,48.2953,8.2391,Wolfach,Baden-Württemberg
DE134,Ortenaukreis,5991,234,48.4997,8.1376,Oppenau Oberes Renchtal,Baden-Württemberg
DE135,Rottweil,1290,714,48.1868,8.4672,Eschbronn-Mariazell,Baden-Württemberg
DE135,Rottweil,3704,516,48.2851,8.5754,Oberndorf/Neckar,Baden-Württemberg
DE135,Rottweil,4300,588,48.1814,8.6356,Rottweil,Baden-Württemberg
DE135,Rottweil,7234,310,48.2934,8.3066,Schiltach (LUBW),Baden-Württemberg
DE135,Rottweil,7497,651,48.1872,8.3667,Tennenbronn,Baden-Württemberg
DE136,Schwarzwald-Baar-Kreis,11,680,47.9737,8.5205,Donaueschingen (Landeplatz),Baden-Württemberg
DE136,Schwarzwald-Baar-Kreis,1018,677,47.9422,8.5046,Donaueschingen,Baden-Württemberg
DE136,Schwarzwald-Baar-Kreis,1076,692,48.0135,8.5343,"Dürrheim, Bad",Baden-Württemberg
DE136,Schwarzwald-Baar-Kreis,2677,730,48.1413,8.4285,Königsfeld/Schwarzwald,Baden-Württemberg
DE136,Schwarzwald-Baar-Kreis,4549,1021,48.1002,8.1969,Schönwald/Schwarzwald,Baden-Württemberg
DE136,Schwarzwald-Baar-Kreis,4556,904,48.1402,8.1991,Schonach,Baden-Württemberg
DE136,Schwarzwald-Baar-Kreis,5094,683,48.1316,8.2283,Triberg,Baden-Württemberg
DE136,Schwarzwald-Baar-Kreis,5095,700,48.1288,8.232999999999999,Triberg (Kurpark),Baden-Württemberg
DE136,Schwarzwald-Baar-Kreis,5229,719,48.0453,8.4608,Villingen-Schwenningen,Baden-Württemberg
DE136,Schwarzwald-Baar-Kreis,7436,1025,48.1004,8.1973,Schönwald/Schwarzwald (LUBW),Baden-Württemberg
DE136,Schwarzwald-Baar-Kreis,13716,818,47.818999999999996,8.5774,Blumberg-Randen,Baden-Württemberg
DE136,Schwarzwald-Baar-Kreis,15170,718,47.9725,8.4157,Donaueschingen-Wolterdingen,Baden-Württemberg
DE214,Altötting,808,413,48.187,12.8098,"Mehring, Kr. Altötting-Niederholz",Bayern
DE214,Altötting,5123,413,48.208,12.6296,Tüßling,Bayern
DE214,Altötting,6297,450,48.3014,12.6025,Pleiskirchen,Bayern
DE215,Berchtesgadener Land,361,550,47.6344,13.0109,Berchtesgaden (KKst),Bayern
DE215,Berchtesgadener Land,2885,430,47.9522,12.8978,Laufen/Obb.-Lebenau (Haftanstalt),Bayern
DE215,Berchtesgadener Land,3192,501,47.7046,13.0372,Marktschellenberg,Bayern
DE215,Berchtesgadener Land,4125,470,47.7238,12.874,"Reichenhall, Bad",Bayern
DE215,Berchtesgadener Land,5000,498,47.8526,12.8282,Teisendorf,Bayern
DE215,Berchtesgadener Land,6190,600,47.6392,13.0068,Berchtesgaden,Bayern
DE215,Berchtesgadener Land,6203,1088,47.6279,12.9015,Ramsau-Schwarzeck/Schmuck,Bayern
DE215,Berchtesgadener Land,7287,980,47.605,13.0153,Berchtesgaden/Jenner,Bayern
DE215,Berchtesgadener Land,7424,457,47.7724,12.9073,Piding,Bayern
DE215,Berchtesgadener Land,13694,590,47.8317,12.8222,Teisendorf-Babing,Bayern
DE215,Berchtesgadener Land,13695,780,47.8219,12.7715,Teisendorf-Neukirchen (Wildberg),Bayern
DE216,Bad Tölz-Wolfratshausen,217,672,47.8774,11.3642,Attenkam,Bayern
DE216,Bad Tölz-Wolfratshausen,2660,805,47.5699,11.3006,Kochel-Einsiedl (Kraftwerk),Bayern
DE216,Bad Tölz-Wolfratshausen,5063,724,47.7566,11.5819,"Tölz, Bad",Bayern
DE216,Bad Tölz-Wolfratshausen,6257,720,47.6279,11.5166,Jachenau-Tannern,Bayern
DE216,Bad Tölz-Wolfratshausen,6293,737,47.5899,11.5504,Lenggries (Sylvenstein),Bayern
DE216,Bad Tölz-Wolfratshausen,6342,609,47.6572,11.3187,Schlehdorf,Bayern
DE216,Bad Tölz-Wolfratshausen,14351,610,47.8529,11.4999,Geretsried (Feuerwehrschule),Bayern
DE217,Dachau,142,511,48.406000000000006,11.3117,Altomünster-Maisbrunn,Bayern
DE217,Dachau,1938,464,48.3028,11.5318,Haimhausen-Ottershausen,Bayern
DE21N,Weilheim-Schongau,125,756,47.8342,10.8667,Altenstadt,Bayern
DE21N,Weilheim-Schongau,443,936,47.7388,10.7448,Bernbeuren-Prachtsried,Bayern
DE21N,Weilheim-Schongau,1094,611,47.7958,11.1991,Eberfing,Bayern
DE21N,Weilheim-Schongau,2290,977,47.8009,11.0108,Hohenpeißenberg,Bayern
DE21N,Weilheim-Schongau,4066,553,47.9091,11.1048,Raisting,Bayern
DE21N,Weilheim-Schongau,4850,782,47.7112,10.8758,Steingaden-Lauterbach,Bayern
DE21N,Weilheim-Schongau,5538,550,47.8827,11.1576,Wielenbach (Demollstr.),Bayern
DE21N,Weilheim-Schongau,6169,761,47.761,10.8601,Steingaden-Riesen,Bayern
DE21N,Weilheim-Schongau,7308,541,47.8847,11.154000000000002,Wielenbach,Bayern
DE221,"Landshut, Kreisfreie Stadt",2783,436,48.5126,12.1513,Kumhausen,Bayern
DE221,"Landshut, Kreisfreie Stadt",2831,393,48.5357,12.1132,Landshut,Bayern
DE221,"Landshut, Kreisfreie Stadt",6224,400,48.5168,12.0493,Landshut-Peterreuth,Bayern
DE221,"Landshut, Kreisfreie Stadt",13710,490,48.5734,12.2576,Landshut-Reithof,Bayern
DE222,"Passau, Kreisfreie Stadt",3879,409,48.5779,13.4694,Passau-Oberhaus,Bayern
DE224,Deggendorf,2069,648,48.8629,13.067,Hausstein,Bayern
DE224,Deggendorf,3271,314,48.8548,12.9189,Metten,Bayern
DE224,Deggendorf,6161,311,48.7577,13.0134,Osterhofen-Thundorf,Bayern
DE224,Deggendorf,6296,320,48.7751,12.9578,"Moos,Kr. Deggendorf-Maxmühle",Bayern
DE225,Freyung-Grafenau,728,1016,48.8171,13.2176,Brotjacklriegel (UBA),Bayern
DE225,Freyung-Grafenau,1735,628,48.7894,13.629000000000001,Grainet-Rehberg,Bayern
DE225,Freyung-Grafenau,3211,1011,48.9359,13.5747,Mauth-Finsterau,Bayern
DE225,Freyung-Grafenau,4354,457,48.7832,13.3146,Saldenburg-Entschenreuth,Bayern
DE225,Freyung-Grafenau,5306,940,48.9293,13.4641,Waldhäuser (National Park),Bayern
DE238,"Regensburg, Landkreis",103,364,48.896,12.217,Hagelstadt,Bayern
DE238,"Regensburg, Landkreis",359,464,49.1022,11.796,Beratzhausen,Bayern
DE239,Schwandorf,118,388,49.4053,12.2852,Altendorf,Bayern
DE239,Schwandorf,3429,366,49.4497,12.1874,Nabburg (Flussmeisterstelle),Bayern
DE239,Schwandorf,3617,431,49.1658,12.2788,Nittenau-Harting,Bayern
DE239,Schwandorf,3739,596,49.4521,12.4365,Oberviechtach,Bayern
DE239,Schwandorf,4493,417,49.4116,12.075999999999999,Schmidgaden,Bayern
DE239,Schwandorf,4546,684,49.5273,12.5705,Schönsee-Dietersdorf,Bayern
DE239,Schwandorf,4592,356,49.3278,12.0871,Schwandorf,Bayern
DE239,Schwandorf,5013,350,49.2187,12.0624,Teublitz (Kläranlage),Bayern
DE239,Schwandorf,6216,464,49.5321,12.2798,Trausnitz-Reisach,Bayern
DE239,Schwandorf,6281,420,49.3608,12.4477,Neunburg vorm Wald-Eixendorf(Seemeiste,Bayern
DE268,Kitzingen,2600,193,49.7363,10.1781,Kitzingen,Bayern
DE268,Kitzingen,4603,188,49.7975,10.2191,Schwarzach/Main (Klärwerk),Bayern
DE24D,Wunsiedel i. Fichtelgebirge,1407,567,50.1733,12.1159,Selb/Oberfranken (Ernst Reute,Bayern
DE24D,Wunsiedel i. Fichtelgebirge,2274,518,50.092,12.2134,Hohenberg/Eger,Bayern
DE24D,Wunsiedel i. Fichtelgebirge,4548,608,50.2047,12.1435,Selb/Oberfranken-Lauterbach,Bayern
DE24D,Wunsiedel i. Fichtelgebirge,4663,535,50.1633,12.1188,Selb/Oberfranken (Klärwerk),Bayern
DE24D,Wunsiedel i. Fichtelgebirge,6196,610,50.1587,12.0386,Selb-Spielberg,Bayern
DE24D,Wunsiedel i. Fichtelgebirge,7394,622,50.0315,11.9745,Wunsiedel-Schönbrunn,Bayern
DE251,"Ansbach, Kreisfreie Stadt",175,413,49.2964,10.5751,Ansbach,Bayern
DE251,"Ansbach, Kreisfreie Stadt",176,481,49.2475,10.5826,Ansbach-Claffheim,Bayern
DE252,"Erlangen, Kreisfreie Stadt",1281,284,49.5653,10.9729,Erlangen-Frauenaurach,Bayern
DE254,"Nürnberg, Kreisfreie Stadt",3661,307,49.45,11.0667,Nürnberg (Hochhaus),Bayern
DE254,"Nürnberg, Kreisfreie Stadt",3667,368,49.4258,11.2538,Nürnberg-Netzstall,Bayern
DE254,"Nürnberg, Kreisfreie Stadt",3668,314,49.503,11.0549,Nürnberg,Bayern
DE137,Tuttlingen,1584,672,47.9242,8.6473,Geisingen,Baden-Württemberg
DE137,Tuttlingen,2638,974,48.1054,8.7548,Klippeneck,Baden-Württemberg
DE137,Tuttlingen,3518,793,47.976000000000006,8.9101,Neuhausen ob Eck,Baden-Württemberg
DE137,Tuttlingen,3519,663,47.9519,8.9932,Neuhausen ob Eck-Unterschwandorf,Baden-Württemberg
DE137,Tuttlingen,5127,649,48.0083,8.8179,Tuttlingen,Baden-Württemberg
DE137,Tuttlingen,5128,668,47.9682,8.79,Tuttlingen-Möhringen-Vorstadt,Baden-Württemberg
DE269,Miltenberg,3319,239,49.7644,9.253,Röllbach,Bayern
DE269,Miltenberg,6285,420,49.6546,9.2609,Amorbach-Neudorf,Bayern
DE26A,Main-Spessart,191,220,49.9695,9.9113,Arnstein-Müdesheim,Bayern
DE26A,Main-Spessart,240,287,50.1805,9.5743,Aura im Sinngrund,Bayern
DE26A,Main-Spessart,502,412,49.8747,9.4883,Bischbrunn,Bayern
DE26A,Main-Spessart,2051,130,49.7845,9.4722,Hasloch/Main (Schirrhof),Bayern
DE26A,Main-Spessart,2745,246,49.8022,9.5556,Kreuzwertheim-Unterwittbach,Bayern
DE26A,Main-Spessart,3056,161,50.0103,9.61,Lohr/Main-Steinbach,Bayern
DE26A,Main-Spessart,4289,148,49.9,9.5833,Rothenfels,Bayern
DE26A,Main-Spessart,5498,140,49.7667,9.5428,Wertheim-Eichel,Baden-Württemberg
DE26A,Main-Spessart,6287,160,50.1141,9.735,"Gräfendorf,Kr.Main-Spessart (Kläranlag",Bayern
DE26A,Main-Spessart,6336,288,50.0132,9.654,Lohr/Main-Halsbach,Bayern
DE26A,Main-Spessart,7412,340,50.0083,9.4238,Neuhütten/Spessart,Bayern
DE218,Ebersberg,1103,592,48.1003,11.9872,Ebersberg-Halbing,Bayern
DE218,Ebersberg,1401,508,48.1723,11.9061,Forstinning,Bayern
DE218,Ebersberg,6279,500,47.9869,11.9942,Aßling,Bayern
DE138,Konstanz,1239,540,47.8516,8.7673,Engen/Hegau,Baden-Württemberg
DE138,Konstanz,1711,438,47.7344,8.7932,Gottmadingen,Baden-Württemberg
DE138,Konstanz,2712,443,47.6774,9.19,Konstanz,Baden-Württemberg
DE138,Konstanz,2713,398,47.6605,9.1634,Konstanz (Stadtgärtnerei),Baden-Württemberg
DE138,Konstanz,4881,532,47.8591,9.0152,Stockach,Baden-Württemberg
DE138,Konstanz,6098,398,47.8147,9.0237,Stockach-Espasingen,Baden-Württemberg
DE138,Konstanz,6099,450,47.702,8.7318,Gailingen,Baden-Württemberg
DE138,Konstanz,6263,445,47.7738,8.8219,Singen,Baden-Württemberg
DE139,Lörrach,341,235,47.7277,7.5520000000000005,"Bellingen, Bad",Baden-Württemberg
DE139,Lörrach,2377,362,47.7001,7.5895,Kandern-Gupf,Baden-Württemberg
DE139,Lörrach,4175,282,47.559,7.7721,Rheinfelden,Baden-Württemberg
DE139,Lörrach,7322,700,47.766000000000005,7.7215,Malsburg-Marzell,Baden-Württemberg
DE226,Kelheim,2550,350,48.9244,11.85,Kelheim (Kanalschleuse),Bayern
DE226,Kelheim,4185,363,48.9557,11.7278,Riedenburg,Bayern
DE226,Kelheim,4694,380,48.7629,11.843,Siegenburg (Kläranlage),Bayern
DE226,Kelheim,5904,431,48.6493,11.7772,Mainburg,Bayern
DE226,Kelheim,5905,436,48.6709,11.7836,Mainburg-Lindkirchen,Bayern
DE226,Kelheim,7075,429,48.702,11.8493,Elsendorf-Horneck,Bayern
DE226,Kelheim,13676,378,48.8608,12.0323,Langquaid-Oberschneidhart,Bayern
DE219,Eichstätt,940,518,48.9167,11.45,Denkendorf,Bayern
DE219,Eichstätt,1161,384,48.8777,11.2349,Eichstätt-Landershofen,Bayern
DE219,Eichstätt,1587,536,48.9481,11.4289,Gelbelsee,Bayern
DE219,Eichstätt,1849,408,48.8126,11.5728,Großmehring-Theißing,Bayern
DE219,Eichstätt,2700,416,48.8302,11.4872,Kösching,Bayern
DE219,Eichstätt,3438,401,48.8016,11.2181,Nassenfels,Bayern
DE219,Eichstätt,6219,394,48.8768,11.1043,Dollnstein-Breitenfurt,Bayern
DE21A,Erding,1023,430,48.2746,12.1616,Dorfen (Kläranlage),Bayern
DE21A,Erding,1261,460,48.3192,11.944,Erding,Bayern
DE21A,Erding,1262,446,48.3477,11.8133,München-Flughafen,Bayern
DE21A,Erding,1366,498,48.2213,11.7989,Finsing (Kraftwerk),Bayern
DE21A,Erding,2416,549,48.2022,12.0382,Isen-Westach,Bayern
DE21A,Erding,2417,621,48.1644,12.0307,Mittbach,Bayern
DE21A,Erding,4584,444,48.3667,11.8,Schwaigermoos,Bayern
DE21A,Erding,4858,485,48.3773,12.0927,Steinkirchen-Hofstarring,Bayern
DE21B,Freising,221,483,48.5515,11.7117,Au i.d.Hallertau-Günzenhausen,Bayern
DE21B,Freising,3435,477,48.5235,11.8398,Nandlstadt,Bayern
DE21B,Freising,5404,477,48.4025,11.6946,Weihenstephan-Dürnast,Bayern
DE21B,Freising,5470,459,48.3631,11.5635,Fahrenzhausen,Bayern
DE227,"Landshut, Landkreis",1900,450,48.4522,12.1549,Vilsheim-Münchsdorf,Bayern
DE227,"Landshut, Landkreis",2294,468,48.6572,12.0887,Hohenthann,Bayern
DE227,"Landshut, Landkreis",5230,462,48.4527,12.3382,Vilsbiburg,Bayern
DE228,"Passau, Landkreis",73,340,48.6159,13.0506,Aldersbach-Kriestorf,Bayern
DE228,"Passau, Landkreis",1139,400,48.6846,13.2512,Eging am See-Burgstall,Bayern
DE228,"Passau, Landkreis",1932,398,48.5833,13.0167,Haidenburg,Bayern
DE228,"Passau, Landkreis",2376,455,48.6549,13.5077,Büchlberg-Tannöd,Bayern
DE228,"Passau, Landkreis",3960,323,48.3952,13.3139,Pocking,Bayern
DE228,"Passau, Landkreis",4303,395,48.6532,13.4233,Ruderting,Bayern
DE228,"Passau, Landkreis",4755,847,48.6819,13.7351,Sonnen,Bayern
DE228,"Passau, Landkreis",5161,573,48.5599,13.7494,Untergriesbach-Glotzing,Bayern
DE228,"Passau, Landkreis",5162,495,48.5996,13.6458,Untergriesbach-Schaibing,Bayern
DE228,"Passau, Landkreis",5856,476,48.5451,13.3532,Fürstenzell,Bayern
DE228,"Passau, Landkreis",13932,388,48.3617,13.1938,Rotthalmünster (Landwirtschaftsamt),Bayern
DE228,"Passau, Landkreis",14301,415,48.73,13.2741,Eging am See-Rohrbachholz,Bayern
DE256,"Ansbach, Landkreis",323,425,49.1626,10.5918,Bechhofen/Mittelfranken -Voggendorf,Bayern
DE256,"Ansbach, Landkreis",970,405,49.4158,10.6734,Dietenhofen,Bayern
DE256,"Ansbach, Landkreis",985,491,49.0504,10.2892,Dinkelsbühl-Oberwinstetten,Bayern
DE256,"Ansbach, Landkreis",4287,415,49.3848,10.1732,Rothenburg ob der Tauber,Bayern
DE256,"Ansbach, Landkreis",5374,420,49.034,10.6031,Wassertrüdingen (Kläranlage),Bayern
DE256,"Ansbach, Landkreis",5405,474,49.3376,10.606,Weihenzell-Grüb,Bayern
DE256,"Ansbach, Landkreis",5654,464,49.2178,10.2296,Wörnitz-Bottenweiler,Bayern
DE256,"Ansbach, Landkreis",6158,455,49.2247,10.6084,Weidenbach-Weiherschneidbach,Bayern
DE256,"Ansbach, Landkreis",6283,434,49.3826,10.3733,Colmberg-Binzwangen,Bayern
DE256,"Ansbach, Landkreis",6284,420,49.2289,10.5044,Herrieden (Kläranlage),Bayern
DE256,"Ansbach, Landkreis",7369,475,49.1623,10.3661,Feuchtwangen-Heilbronn,Bayern
DE257,Erlangen-Höchstadt,29,260,49.7175,10.9101,Adelsdorf (Kläranlage),Bayern
DE257,Erlangen-Höchstadt,1279,268,49.6497,11.0074,Möhrendorf-Kleinseebach,Bayern
DE257,Erlangen-Höchstadt,5185,291,49.5933,11.0704,Uttenreuth,Bayern
DE258,"Fürth, Landkreis",2860,370,49.5075,10.7884,Langenzenn,Bayern
DE13A,Waldshut,498,760,47.7453,8.3111,Ühlingen-Birkendorf,Baden-Württemberg
DE13A,Waldshut,604,875,47.8194,8.3348,Bonndorf/Schwarzwald,Baden-Württemberg
DE13A,Waldshut,1013,309,47.6026,8.1697,Dogern,Baden-Württemberg
DE13A,Waldshut,1727,948,47.7758,8.2476,Grafenhausen/Hochschwarzwald,Baden-Württemberg
DE13A,Waldshut,2244,1008,47.7327,8.1627,Höchenschwand,Baden-Württemberg
DE13A,Waldshut,2477,728,47.5938,7.9597,Jungholz (Kühmoos),Baden-Württemberg
DE13A,Waldshut,4350,339,47.5619,7.9399,"Säckingen, Bad",Baden-Württemberg
DE13A,Waldshut,4351,295,47.5582,7.9773,"Säckingen, Bad (Bergseestr.)",Baden-Württemberg
DE13A,Waldshut,4386,795,47.761,8.1247,Sankt Blasien,Baden-Württemberg
DE13A,Waldshut,5059,781,47.728,7.9988,Todtmoos,Baden-Württemberg
DE13A,Waldshut,5412,771,47.6802,8.1964,Weilheim-Bierbronnen,Baden-Württemberg
DE13A,Waldshut,5688,880,47.7003,8.1057,Dachsberg-Wolpadingen,Baden-Württemberg
DE13A,Waldshut,5731,398,47.6783,8.3801,Wutöschingen-Ofteringen,Baden-Württemberg
DE13A,Waldshut,6246,368,47.6213,8.2167,Waldshut KKW,Baden-Württemberg
DE13A,Waldshut,6247,307,47.6078,8.1813,Dogern (Leibstadt),Baden-Württemberg
DE141,Reutlingen,1243,705,48.4734,9.3028,Eningen,Baden-Württemberg
DE141,Reutlingen,2072,665,48.2738,9.4745,Hayingen,Baden-Württemberg
DE141,Reutlingen,2292,740,48.3551,9.3356,Hohenstein-Bernloch,Baden-Württemberg
DE141,Reutlingen,3278,354,48.5377,9.2734,Metzingen,Baden-Württemberg
DE141,Reutlingen,3402,750,48.3851,9.4837,Münsingen-Apfelstetten,Baden-Württemberg
DE141,Reutlingen,5174,471,48.4951,9.4003,"Urach, Bad",Baden-Württemberg
DE141,Reutlingen,5987,591,48.287,9.4996,Hayingen-Anhausen,Baden-Württemberg
DE142,"Tübingen, Landkreis",4294,360,48.4704,8.9687,Rottenburg-Kiebingen,Baden-Württemberg
DE142,"Tübingen, Landkreis",5118,445,48.5401,9.0362,Tübingen (Botanischer Garten),Baden-Württemberg
DE142,"Tübingen, Landkreis",5119,409,48.5333,9.0667,Tübingen (Gartenbauzentrale),Baden-Württemberg
DE142,"Tübingen, Landkreis",5120,370,48.5198,9.0515,Tübingen,Baden-Württemberg
DE143,Zollernalbkreis,71,759,48.2156,8.9784,Albstadt-Badkap,Baden-Württemberg
DE143,Zollernalbkreis,72,794,48.2766,9.0001,Albstadt-Onstmettingen,Baden-Württemberg
DE143,Zollernalbkreis,277,573,48.2772,8.883,Balingen-Heselwangen,Baden-Württemberg
DE143,Zollernalbkreis,525,854,48.2435,9.1007,Bitz,Baden-Württemberg
DE143,Zollernalbkreis,1937,524,48.3705,8.7666,Haigerloch-Weildorf,Baden-Württemberg
DE143,Zollernalbkreis,2074,518,48.3752,8.98,Hechingen,Baden-Württemberg
DE143,Zollernalbkreis,3268,900,48.1694,8.9433,Meßstetten-Appental,Baden-Württemberg
DE143,Zollernalbkreis,7138,682,48.2962,9.0701,Burladingen-Hausen,Baden-Württemberg
DE143,Zollernalbkreis,7235,650,48.2109,8.7656,Schömberg-Stausee,Baden-Württemberg
DE143,Zollernalbkreis,13965,619,48.2639,8.8134,Balingen-Bronnhaupten,Baden-Württemberg
DE229,Regen,570,648,49.0768,13.0765,Bodenmais-Mais,Bayern
DE229,Regen,1831,1449,49.1126,13.1353,Großer Arber (Ost),Bayern
DE229,Regen,1832,1436,49.1129,13.1338,Großer Arber,Bayern
DE229,Regen,1833,1307,49.0851,13.2801,Grosser Falkenstein,Bayern
DE229,Regen,3012,740,49.0315,13.3272,Lindberg-Buchenau,Bayern
DE229,Regen,5002,400,49.0426,12.9942,Teisnach,Bayern
DE229,Regen,5800,615,49.028,13.2385,Zwiesel,Bayern
DE229,Regen,5802,615,49.0007,13.2137,Zwieselberg,Bayern
DE229,Regen,6191,684,48.9023,13.1442,Kirchberg/Niederbayern -Zell,Bayern
DE229,Regen,7350,585,49.1088,12.8231,Prackenbach-Neuhäusl,Bayern
DE22A,Rottal-Inn,1132,410,48.3956,12.7287,Eggenfelden,Bayern
DE22A,Rottal-Inn,1275,340,48.3008,13.1398,Ering,Bayern
DE22A,Rottal-Inn,1332,471,48.4832,12.7241,"Falkenberg,Kr.Rottal-Inn",Bayern
DE22A,Rottal-Inn,1542,434,48.4327,12.5714,Gangkofen (Kläranlage),Bayern
DE22A,Rottal-Inn,3919,381,48.4252,12.9924,Pfarrkirchen,Bayern
DE22A,Rottal-Inn,4706,358,48.2718,13.0273,Simbach/Inn,Bayern
DE22A,Rottal-Inn,5721,474,48.3569,12.7679,Wurmannsquick-Egelsberg,Bayern
DE22B,Straubing-Bogen,46,325,48.945,12.4639,Aholfing,Bayern
DE22B,Straubing-Bogen,589,343,48.8846,12.7453,Bogen-Pfelling,Bayern
DE22B,Straubing-Bogen,2920,365,48.7654,12.5121,Leiblfing,Bayern
DE22B,Straubing-Bogen,3147,418,48.7725,12.2179,Mallersdorf-Pfaffenberg/Niederbayern,Bayern
DE22B,Straubing-Bogen,4387,805,49.0029,12.8237,Sankt Englmar,Bayern
DE22B,Straubing-Bogen,4816,390,49.0568,12.6395,Stallwang,Bayern
DE22B,Straubing-Bogen,4911,351,48.8275,12.5597,Straubing,Bayern
DE22B,Straubing-Bogen,5548,680,49.032,12.5505,Wiesenfelden-Utzenzell,Bayern
DE22B,Straubing-Bogen,6182,404,48.7757,12.1743,Mallersdorf-Pfaffenberg,Bayern
DE259,Nürnberger Land,2580,545,49.5856,11.4275,Kirchensittenbach-Hohenstein,Bayern
DE259,Nürnberger Land,2884,310,49.5042,11.2736,Lauf/Pegnitz (Kläranlage),Bayern
DE259,Nürnberger Land,3975,522,49.4777,11.5357,Pommelsbrunn-Mittelburg,Bayern
DE25A,Neustadt a. d. Aisch-Bad Windsheim,126,330,49.5447,10.2213,Uffenheim (Schulstr.),Bayern
DE25A,Neustadt a. d. Aisch-Bad Windsheim,652,384,49.5353,10.7706,Hagenbüchach,Bayern
DE25A,Neustadt a. d. Aisch-Bad Windsheim,801,331,49.4549,10.324000000000002,Burgbernheim,Bayern
DE25A,Neustadt a. d. Aisch-Bad Windsheim,3179,320,49.666000000000004,10.3851,Markt Bibart,Bayern
DE25A,Neustadt a. d. Aisch-Bad Windsheim,3565,315,49.5728,10.6001,Neustadt/Aisch,Bayern
DE25A,Neustadt a. d. Aisch-Bad Windsheim,5149,308,49.5741,10.1916,Gollhofen,Bayern
DE25A,Neustadt a. d. Aisch-Bad Windsheim,5573,358,49.5664,10.7404,Wilhelmsdorf/Mittelfranken,Bayern
DE25A,Neustadt a. d. Aisch-Bad Windsheim,5600,310,49.5141,10.4231,"Windsheim, Bad",Bayern
DE25A,Neustadt a. d. Aisch-Bad Windsheim,6201,337,49.5336,10.1549,Simmershofen-Adelhofen,Bayern
DE25A,Neustadt a. d. Aisch-Bad Windsheim,6312,362,49.5314,10.6418,Markt Erlbach-Mosbach,Bayern
DE25A,Neustadt a. d. Aisch-Bad Windsheim,15122,380,49.52,10.2854,Ergersheim-Neuherberg,Bayern
DE25B,Roth,1607,344,49.1934,11.0267,Georgensgmünd,Bayern
DE25B,Roth,1752,516,49.0734,11.3719,Greding-Herrnsberg,Bayern
DE25B,Roth,4248,402,49.3082,10.9183,Rohr/Mittelfranken-Dechendorf,Bayern
DE25B,Roth,4280,386,49.2162,11.1035,Roth,Bayern
DE25B,Roth,4599,331,49.3425,11.1077,Wendelstein-Kleinschwarzenlohe,Bayern
DE25B,Roth,5023,417,49.0871,11.2236,Thalmässing,Bayern
DE25B,Roth,6252,376,49.2105,11.1843,Rothsee bei Allersberg,Bayern
DE144,"Ulm, Stadtkreis",5154,576,48.4,9.9833,Ulm-Wilhelmsburg,Baden-Württemberg
DE144,"Ulm, Stadtkreis",5155,567,48.3837,9.9524,Ulm,Baden-Württemberg
DE144,"Ulm, Stadtkreis",15444,593,48.4418,9.9216,Ulm-Mähringen,Baden-Württemberg
DE145,Alb-Donau-Kreis,2814,685,48.5121,9.7645,Merklingen,Baden-Württemberg
DE145,Alb-Donau-Kreis,3418,594,48.2754,9.6355,Ehingen-Kirchen,Baden-Württemberg
DE145,Alb-Donau-Kreis,5511,823,48.5206,9.6187,Westerheim,Baden-Württemberg
DE145,Alb-Donau-Kreis,13672,593,48.5537,9.9877,Weidenstetten,Baden-Württemberg
DE145,Alb-Donau-Kreis,15478,514,48.2094,10.0655,Dietenheim,Baden-Württemberg
DE146,Biberach,384,570,48.0409,10.0808,Berkheim,Baden-Württemberg
DE146,Biberach,474,599,48.1252,9.7639,Warthausen-Birkenhard,Baden-Württemberg
DE146,Biberach,2850,777,48.1994,9.3327,Langenenslingen-Ittenhausen,Baden-Württemberg
DE146,Biberach,2886,539,48.2176,9.9097,Laupheim,Baden-Württemberg
DE146,Biberach,4189,533,48.1479,9.4596,"Altheim, Kreis Biberach",Baden-Württemberg
DE146,Biberach,4190,526,48.1667,9.5,Riedlingen (A),Baden-Württemberg
DE146,Biberach,5724,690,47.9589,10.0139,Rot an der Rot-Buch,Baden-Württemberg
DE146,Biberach,13715,604,48.1003,9.8058,Biberach an der Riß-Bergerhausen,Baden-Württemberg
DE128,Rhein-Neckar-Kreis,1093,131,49.4593,8.9595,Eberbach (LUBW),Baden-Württemberg
DE128,Rhein-Neckar-Kreis,3448,117,49.3945,8.8046,Neckargemünd-Kleingemünd,Baden-Württemberg
DE128,Rhein-Neckar-Kreis,4532,350,49.4103,8.9351,Schönbrunn/Baden,Baden-Württemberg
DE128,Rhein-Neckar-Kreis,4719,169,49.2447,8.8787,Sinsheim,Baden-Württemberg
DE128,Rhein-Neckar-Kreis,7239,178,49.3031,8.9032,Waibstadt/Schwarzbach,Baden-Württemberg
DE128,Rhein-Neckar-Kreis,13674,237,49.2943,8.9053,Waibstadt,Baden-Württemberg
DE129,"Pforzheim, Stadtkreis",3924,246,48.9059,8.7412,Pforzheim-Eutingen,Baden-Württemberg
DE12A,Calw,998,696,48.7968,8.4921,Dobel,Baden-Württemberg
DE12A,Calw,2158,350,48.8042,8.443,"Herrenalb, Bad",Baden-Württemberg
DE12A,Calw,2996,352,48.7726,8.7287,"Liebenzell, Bad (LUBW)",Baden-Württemberg
DE12A,Calw,3432,380,48.5667,8.7184,Nagold,Baden-Württemberg
DE12A,Calw,4517,635,48.7859,8.6451,"Schömberg, Kr. Calw",Baden-Württemberg
DE12A,Calw,4710,718,48.6191,8.5247,Simmersfeld,Baden-Württemberg
DE12A,Calw,5559,385,48.7848,8.5764,"Wildbad, Bad-Calmbach",Baden-Württemberg
DE12A,Calw,5560,740,48.7501,8.5365,"Wildbad, Bad-Sommerberg",Baden-Württemberg
DE12A,Calw,5562,570,48.6516,8.6801,Neubulach-Oberhaugstett,Baden-Württemberg
DE12A,Calw,5840,600,48.6669,8.4699,Enzklösterle,Baden-Württemberg
DE12A,Calw,5841,600,48.6667,8.4667,Enzklösterle (A),Baden-Württemberg
DE12A,Calw,5986,329,48.745,8.7301,Calw-Hirsau,Baden-Württemberg
DE12A,Calw,7434,351,48.8042,8.443,"Herrenalb, Bad (LUBW)",Baden-Württemberg
DE12B,Enzkreis,3362,244,48.9721,8.8734,Mühlacker,Baden-Württemberg
DE12B,Enzkreis,3925,333,48.9329,8.6973,Pforzheim-Ispringen,Baden-Württemberg
DE12B,Enzkreis,7494,160,48.9597,8.5905,"Königsbach-Stein, Enzkreis",Baden-Württemberg
DE22C,Dingolfing-Landau,1158,350,48.636,12.8531,Eichendorf,Bayern
DE22C,Dingolfing-Landau,1511,400,48.5587,12.5719,Marklkofen (Betriebsstelle Vilstalsee),Bayern
DE22C,Dingolfing-Landau,1846,344,48.6773,12.6204,Pilsting-Bäckermühle,Bayern
DE22C,Dingolfing-Landau,3153,449,48.6189,12.6233,Mamming-Schneiderberg,Bayern
DE22C,Dingolfing-Landau,3607,416,48.6106,12.4143,Loiching,Bayern
DE22C,Dingolfing-Landau,7395,351,48.6595,12.5388,Gottfrieding,Bayern
DE231,"Amberg, Kreisfreie Stadt",151,382,49.4691,11.8546,Amberg-Unterammersricht,Bayern
DE232,"Regensburg, Kreisfreie Stadt",4104,365,49.0425,12.1019,Regensburg,Bayern
DE233,"Weiden i. d. Opf, Kreisfreie Stadt",5397,440,49.6663,12.1845,Weiden,Bayern
DE234,Amberg-Sulzbach,1119,535,49.5767,11.6975,Edelsfeld,Bayern
DE234,Amberg-Sulzbach,1458,492,49.5747,11.8859,Freihung-Großschönbrunn,Bayern
DE234,Amberg-Sulzbach,2538,425,49.3658,11.6925,"Kastl, Kreis Amberg-Sulzbach",Bayern
DE234,Amberg-Sulzbach,2773,417,49.4283,11.9016,Kümmersbruck,Bayern
DE234,Amberg-Sulzbach,3530,479,49.5003,11.6397,Neukirchen/Oberpfalz -Haid,Bayern
DE234,Amberg-Sulzbach,4494,455,49.2806,11.914000000000001,Schmidmühlen,Bayern
DE234,Amberg-Sulzbach,6205,533,49.4039,11.7603,Ursensollen (Hohenburger Str.,Bayern
DE21G,Mühldorf a. Inn,2453,403,48.178000000000004,12.3798,Jettenbach,Bayern
DE21G,Mühldorf a. Inn,3366,406,48.2791,12.5024,Mühldorf,Bayern
DE21G,Mühldorf a. Inn,3535,440,48.3657,12.5215,Neumarkt-Sankt Veit (Kläranlage),Bayern
DE21G,Mühldorf a. Inn,3735,455,48.2635,12.276,Obertaufkirchen,Bayern
DE21G,Mühldorf a. Inn,6286,400,48.2612,12.4292,Ampfing (Kläranlage),Bayern
DE21H,"München, Landkreis",933,585,48.0368,11.5777,"Deisenhofen, Kreis München",Bayern
DE21H,"München, Landkreis",3722,484,48.2443,11.5528,Oberschleißheim,Bayern
DE21H,"München, Landkreis",4413,555,47.9767,11.4693,Schäftlarn-Kloster Schäftlarn,Bayern
DE21H,"München, Landkreis",6280,600,47.971000000000004,11.7747,Aying (Brauerei),Bayern
DE21H,"München, Landkreis",7431,604,48.013000000000005,11.5524,Oberhaching-Laufzorn,Bayern
DE21I,Neuburg-Schrobenhausen,2521,374,48.6765,11.2961,Karlshuld,Bayern
DE21I,Neuburg-Schrobenhausen,2691,378,48.6707,11.2173,Königsmoos-Untermaxfeld,Bayern
DE21I,Neuburg-Schrobenhausen,3484,380,48.7086,11.2147,Neuburg/Donau (Flugplatz),Bayern
DE21I,Neuburg-Schrobenhausen,4567,415,48.5539,11.2846,Schrobenhausen,Bayern
DE21J,Pfaffenhofen a. d. Ilm,1578,395,48.6516,11.5845,Geisenfeld-Eichelberg,Bayern
DE21J,Pfaffenhofen a. d. Ilm,2360,438,48.6018,11.6769,Hüll,Bayern
DE21J,Pfaffenhofen a. d. Ilm,2410,364,48.7112,11.5362,Ingolstadt (Flugplatz),Bayern
DE21J,Pfaffenhofen a. d. Ilm,4441,479,48.5025,11.4543,Scheyern,Bayern
DE21J,Pfaffenhofen a. d. Ilm,4946,500,48.5151,11.6545,Schweitenkirchen-Sünzhausen,Bayern
DE80O,Ludwigslust-Parchim,591,45,53.3911,10.6878,Boizenburg,Mecklenburg-Vorpommern
DE80O,Ludwigslust-Parchim,1495,52,53.5389,11.7607,Goldenbow,Mecklenburg-Vorpommern
DE80O,Ludwigslust-Parchim,1694,58,53.606,12.1033,Goldberg,Mecklenburg-Vorpommern
DE80O,Ludwigslust-Parchim,1717,28,53.2651,11.5042,Grabow (Kläranlage Fahlenkamp),Mecklenburg-Vorpommern
DE80O,Ludwigslust-Parchim,3146,31,53.2141,11.3686,Malk Göhren,Mecklenburg-Vorpommern
DE80O,Ludwigslust-Parchim,3148,40,53.2113,11.3247,Malliß,Mecklenburg-Vorpommern
DE80O,Ludwigslust-Parchim,3196,81,53.3223,11.9319,Marnitz,Mecklenburg-Vorpommern
DE80O,Ludwigslust-Parchim,3564,35,53.4571,11.5687,Neustadt-Glewe-Friedrichsmoor,Mecklenburg-Vorpommern
DE80O,Ludwigslust-Parchim,3945,66,53.4585,12.2417,Plau am See,Mecklenburg-Vorpommern
DE80O,Ludwigslust-Parchim,4101,16,53.3469,11.1992,Redefin,Mecklenburg-Vorpommern
DE80O,Ludwigslust-Parchim,7078,34,53.5035,11.0014,Dodow,Mecklenburg-Vorpommern
DE278,Günzburg,1886,444,48.4878,10.2607,Günzburg,Bayern
DE278,Günzburg,2761,520,48.251000000000005,10.4163,Krumbach-Edenhausen,Bayern
DE278,Günzburg,2926,477,48.4333,10.2333,Leipheim (Flugplatz),Bayern
DE278,Günzburg,3485,486,48.3115,10.3773,Neuburg/Kammel-Langenhaslach,Bayern
DE80M,Nordwestmecklenburg,596,15,54.0028,11.1908,Boltenhagen,Mecklenburg-Vorpommern
DE80M,Nordwestmecklenburg,839,27,53.7575,10.9288,Carlow,Mecklenburg-Vorpommern
DE80M,Nordwestmecklenburg,1769,25,53.8312,11.1713,Grevesmühlen,Mecklenburg-Vorpommern
DE80M,Nordwestmecklenburg,2272,43,53.7784,11.5595,Ventschow,Mecklenburg-Vorpommern
DE80M,Nordwestmecklenburg,2578,12,53.9995,11.4341,Kirchdorf/Poel,Mecklenburg-Vorpommern
DEB12,Ahrweiler,2500,570,50.3953,6.9896,"Kaltenborn, Hohe Acht",Rheinland-Pfalz
DEB12,Ahrweiler,3490,111,50.5346,7.0853,"Neuenahr, Bad-Ahrweiler",Rheinland-Pfalz
DEB12,Ahrweiler,3659,627,50.3391,6.9501,Nürburg,Rheinland-Pfalz
DEB12,Ahrweiler,3660,485,50.3601,6.8697,Nürburg-Barweiler,Rheinland-Pfalz
DEB12,Ahrweiler,4219,512,50.3965,6.8568,Rodder,Rheinland-Pfalz
DEB12,Ahrweiler,6327,60,50.5539,7.2554,Sinzig,Rheinland-Pfalz
DEB12,Ahrweiler,14010,274,50.5582,7.0318,Esch (DLR RLP),Rheinland-Pfalz
DEB12,Ahrweiler,14042,150,50.5849,7.1455,Leimersdorf-Nierendorf,Rheinland-Pfalz
DEB12,Ahrweiler,15045,420,50.407,7.1458,Weibern (WWV RLP),Rheinland-Pfalz
DEB12,Ahrweiler,15958,287,50.3996,7.2651,Glees (Laacher See),Rheinland-Pfalz
DEC05,Saarpfalz-Kreis,2331,235,49.3278,7.3533,Homburg/Saar,Saarland
DED52,Leipzig,1848,118,51.309,12.1718,Markranstädt-Großlehna,Sachsen
DED52,Leipzig,7323,150,51.2359,12.5517,Belgershain,Sachsen
DED52,Leipzig,7326,134,51.1918,12.7645,Grimma-Kleinbothen,Sachsen
DED52,Leipzig,13688,128,51.1693,12.2618,Pegau,Sachsen
DED53,Nordsachsen,721,101,51.5168,12.4356,Schönwölkau-Brinnis,Sachsen
DED53,Nordsachsen,876,314,51.303999999999995,13.0096,Collmberg,Sachsen
DED53,Nordsachsen,1166,105,51.4601,12.6692,Eilenburg,Sachsen
DED53,Nordsachsen,2641,85,51.5185,12.9065,Klitzschen bei Torgau,Sachsen
DED53,Nordsachsen,2932,131,51.4348,12.2396,Leipzig/Halle,Sachsen
DED53,Nordsachsen,3811,150,51.29600000000001,13.0928,Oschatz,Sachsen
DED53,Nordsachsen,5068,80,51.5833,13.0,Torgau,Sachsen
DE279,Neu-Ulm,5444,500,48.3091,10.2048,Weißenhorn-Oberreichenbach,Bayern
DE27A,Lindau (Bodensee),3714,896,47.5538,9.9406,Oberreute,Bayern
DE27A,Lindau (Bodensee),4429,778,47.588,9.85,Scheidegg,Bayern
DE27A,Lindau (Bodensee),4704,507,47.5776,9.7404,Sigmarszell-Zeisertsweiler,Bayern
DE27A,Lindau (Bodensee),6102,397,47.5396,9.6843,Lindau (SWN),Bayern
DE27A,Lindau (Bodensee),6294,600,47.5738,9.9033,Weiler-Simmerberg (Kläranlage),Bayern
DE27B,Ostallgäu,1950,780,47.6463,10.8073,Halblech-Trauchgau,Bayern
DE27B,Ostallgäu,2387,626,48.0374,10.7409,Buchloe,Bayern
DE27B,Ostallgäu,3190,790,47.7196,10.6433,Marktoberdorf-Sulzschneid,Bayern
DE27B,Ostallgäu,4596,804,47.5775,10.7206,Schwangau,Bayern
DE27B,Ostallgäu,4597,792,47.5769,10.7181,Schwangau-Horn,Bayern
DE27B,Ostallgäu,4641,802,47.6711,10.6271,Seeg (Kläranlage),Bayern
DE27B,Ostallgäu,5169,831,47.7674,10.4604,Kraftisried,Bayern
DE27B,Ostallgäu,6300,796,47.5768,10.7179,Schwangau-Horn (LfW),Bayern
DE27B,Ostallgäu,15214,808,47.6247,10.8076,Halblech-Bayerniederhofen,Bayern
DEC06,St. Wendel,3625,403,49.5568,7.0716,Nohfelden-Gonnesweiler,Saarland
DEC06,St. Wendel,4397,400,49.5025,7.202000000000001,Sankt Wendel-Urweiler,Saarland
DEC06,St. Wendel,4425,569,49.4864,7.029,Schaumberg-Tholey,Saarland
DEC06,St. Wendel,4665,431,49.5281,7.0417,Selbach (Tholey),Saarland
DEC06,St. Wendel,5029,386,49.4738,7.0386,Tholey,Saarland
DED21,"Dresden, Kreisfreie Stadt",1048,227,51.128,13.7543,Dresden-Klotzsche,Sachsen
DED21,"Dresden, Kreisfreie Stadt",1050,114,51.0221,13.847000000000001,Dresden-Hosterwitz,Sachsen
DED21,"Dresden, Kreisfreie Stadt",1051,120,51.0248,13.775,Dresden-Strehlen,Sachsen
DED2C,Bautzen,314,234,51.1604,14.5042,"Kubschütz, Kr. Bautzen",Sachsen
DED2C,Bautzen,3094,166,51.3122,14.0499,Kamenz-Cunnersdorf,Sachsen
DED2C,Bautzen,4023,270,51.2006,14.0207,Pulsnitz,Sachsen
DED2C,Bautzen,4606,116,51.5167,14.35,Schwarze Pumpe,Brandenburg
DED2C,Bautzen,6129,290,51.0593,14.4266,Sohland/Spree,Sachsen
DED2C,Bautzen,7393,116,51.4493,14.2533,Hoyerswerda,Sachsen
DEA1A,"Wuppertal, Kreisfreie Stadt",5717,134,51.2256,7.1052,Wuppertal-Buchenhofen,Nordrhein-Westfalen
DEA1A,"Wuppertal, Kreisfreie Stadt",14184,126,51.2242,7.107,Wuppertal-Buchenhofen/Wupper,Nordrhein-Westfalen
DEA1A,"Wuppertal, Kreisfreie Stadt",15200,327,51.2531,7.2157,Wuppertal,Nordrhein-Westfalen
DEA38,Warendorf,326,120,51.7204,8.0577,Beckum-Unterberg,Nordrhein-Westfalen
DEA38,Warendorf,1046,72,51.7585,7.7528,Drensteinfurt,Nordrhein-Westfalen
DEA38,Warendorf,1246,104,51.8418,8.0607,Ennigerloh-Ostenfelde,Nordrhein-Westfalen
DEA38,Warendorf,13669,55,52.0087,7.852,Ostbevern-Schirlheide,Nordrhein-Westfalen
DEA41,"Bielefeld, Kreisfreie Stadt",7106,105,52.0714,8.4565,Bielefeld-Deppendorf,Nordrhein-Westfalen
DEA42,Gütersloh,1892,72,51.9298,8.3005,Gütersloh (Flugplatz),Nordrhein-Westfalen
DEA42,Gütersloh,2027,63,51.9753,8.2094,Harsewinkel,Nordrhein-Westfalen
DEA42,Gütersloh,13693,70,51.9258,8.3111,Gütersloh/Ems,Nordrhein-Westfalen
DEA43,Herford,1241,128,52.15,8.5226,Enger,Nordrhein-Westfalen
DEA43,Herford,2147,77,52.1264,8.6865,Herford,Nordrhein-Westfalen
DEA44,Höxter,613,206,51.5677,9.2324,Borgentreich,Nordrhein-Westfalen
DEA44,Höxter,644,150,51.7049,9.1738,Brakel,Nordrhein-Westfalen
DEA44,Höxter,1053,192,51.7337,9.0445,"Driburg, Bad",Nordrhein-Westfalen
DEA44,Höxter,2703,496,51.855,9.3239,Köterberg,Nordrhein-Westfalen
DEA44,Höxter,5347,236,51.504,9.1118,Warburg,Nordrhein-Westfalen
DE40D,Ostprignitz-Ruppin,96,50,52.9437,12.8518,Neuruppin-Alt Ruppin,Brandenburg
DE40D,Ostprignitz-Ruppin,2794,40,52.9363,12.4093,Kyritz,Brandenburg
DE40D,Ostprignitz-Ruppin,3473,89,53.0528,12.7562,Neuruppin-Gühlen Glienicke,Brandenburg
DE40D,Ostprignitz-Ruppin,3552,38,52.9037,12.8072,Neuruppin,Brandenburg
DE40D,Ostprignitz-Ruppin,5642,72,53.1833,12.5167,Wittstock,Brandenburg
DE40D,Ostprignitz-Ruppin,5643,66,53.1864,12.4949,Wittstock-Rote Mühle,Brandenburg
DE40E,Potsdam-Mittelmark,735,52,52.1692,12.7334,Brück-Gömnigk,Brandenburg
DE40E,Potsdam-Mittelmark,1801,31,52.4042,12.7923,Groß Kreutz,Brandenburg
DE40E,Potsdam-Mittelmark,5546,187,52.1207,12.4585,Wiesenburg,Brandenburg
DE40E,Potsdam-Mittelmark,5684,40,52.2813,12.458,Wollin,Brandenburg
DE40E,Potsdam-Mittelmark,6265,36,52.3613,12.3867,Wusterwitz,Brandenburg
DE40E,Potsdam-Mittelmark,13662,37,52.3031,12.4029,Boecke,Brandenburg
DEA1B,Kleve,1590,37,51.4942,6.2463,Geldern-Walbeck,Nordrhein-Westfalen
DEA1B,Kleve,1672,19,51.6833,6.1667,Goch,Nordrhein-Westfalen
DEA1B,Kleve,2494,31,51.7329,6.2688,Kalkar,Nordrhein-Westfalen
DEA1B,Kleve,2629,46,51.7612,6.0954,Kleve,Nordrhein-Westfalen
DEA1B,Kleve,2798,32,51.6,6.15,Laarbruch,Nordrhein-Westfalen
DEA1B,Kleve,4900,45,51.4406,6.2672,Straelen,Nordrhein-Westfalen
DEA1B,Kleve,14176,15,51.6901,6.1502,Goch (Klärwerk) (WV NRW),Nordrhein-Westfalen
DEA1B,Kleve,14177,24,51.5426,6.315,Geldern (Klärwerk) (WV NRW),Nordrhein-Westfalen
DEA1C,Mettmann,14155,117,51.2276,7.0016,Haan-Gruiten (WV NRW),Nordrhein-Westfalen
DEA1C,Mettmann,14156,110,51.2889,6.9276,Ratingen-Homberg (WV NRW),Nordrhein-Westfalen
DEA1C,Mettmann,14158,46,51.1189,6.9322,Langenfeld (WV NRW),Nordrhein-Westfalen
DEA1C,Mettmann,14159,165,51.3465,7.0226,Velbert (WV NRW),Nordrhein-Westfalen
DEA1D,Rhein-Kreis Neuss,1024,37,51.1157,6.851,Dormagen-Zons,Nordrhein-Westfalen
DEA1D,Rhein-Kreis Neuss,14166,51,51.108999999999995,6.5982,Grevenbroich (WV NRW),Nordrhein-Westfalen
DEA1D,Rhein-Kreis Neuss,14179,42,51.1968,6.495,Korschenbroich (WV NRW),Nordrhein-Westfalen
DEA1E,Viersen,743,73,51.2,6.1333,Brüggen (Flugplatz),Nordrhein-Westfalen
DEA1E,Viersen,5064,37,51.2897,6.4437,Tönisvorst,Nordrhein-Westfalen
DEA1E,Viersen,7344,45,51.2992,6.2013,Nettetal-Hülst,Nordrhein-Westfalen
DEA1E,Viersen,14178,35,51.3454,6.3546,Grefrath (Klärwerk) (WV NRW),Nordrhein-Westfalen
DEB39,"Worms, Kreisfreie Stadt",5692,88,49.6051,8.3659,Worms,Rheinland-Pfalz
DEB3A,"Zweibrücken, Kreisfreie Stadt",13778,225,49.2525,7.34,Zweibrücken (Kläranlage),Rheinland-Pfalz
DEB3B,Alzey-Worms,150,215,49.7273,8.1164,Alzey,Rheinland-Pfalz
DEB3B,Alzey-Worms,3272,89,49.7395,8.3288,Mettenheim (WWV RLP),Rheinland-Pfalz
DEB3B,Alzey-Worms,7140,140,49.7874,7.9839,Eckelsheim (Villa Bäder) (WWV RLP),Rheinland-Pfalz
DEB3B,Alzey-Worms,14008,245,49.8228,8.1044,Rommersheim (DLR RLP),Rheinland-Pfalz
DEB3B,Alzey-Worms,14014,224,49.7271,8.1168,Kettenheim (DLR RLP),Rheinland-Pfalz
DEB3B,Alzey-Worms,14065,131,49.5982,8.2373,Offstein (DLR RLP),Rheinland-Pfalz
DEB3B,Alzey-Worms,14108,95,49.7473,8.384,Eich (DLR RLP),Rheinland-Pfalz
DEB3B,Alzey-Worms,15569,152,49.8078,7.954,Wöllstein,Rheinland-Pfalz
DEB3C,Bad Dürkheim,1072,107,49.4719,8.1929,"Dürkheim, Bad",Rheinland-Pfalz
DEB3C,Bad Dürkheim,1870,160,49.5665,8.177999999999999,Grünstadt,Rheinland-Pfalz
DEB3C,Bad Dürkheim,6332,210,49.4114,8.006,Weidenthal,Rheinland-Pfalz
DEB3C,Bad Dürkheim,14018,180,49.5189,8.1847,Dackenheim (DLR RLP),Rheinland-Pfalz
DEB3C,Bad Dürkheim,15039,216,49.3452,7.9579,Elmstein (Kläranlage),Rheinland-Pfalz
DEB3D,Donnersbergkreis,316,310,49.6957,7.8387,Bayerfeld-Steckweiler -Schmalfelderhof,Rheinland-Pfalz
DEB3D,Donnersbergkreis,1011,442,49.6017,7.7413,Dörrmoschel-Felsbergerhof,Rheinland-Pfalz
DEB3D,Donnersbergkreis,4323,461,49.6468,7.8837,Ruppertsecken,Rheinland-Pfalz
DEB3D,Donnersbergkreis,14035,194,49.6334,8.0278,Weierhof (DLR RLP),Rheinland-Pfalz
DEE02,"Halle (Saale), Kreisfreie Stadt",1957,93,51.5138,11.9499,Halle-Kröllwitz,Sachsen-Anhalt
DEE02,"Halle (Saale), Kreisfreie Stadt",1960,102,51.4831,11.9671,Halle (Stadt),Sachsen-Anhalt
DE721,"Gießen, Landkreis",1639,203,50.6017,8.6439,Gießen/Wettenberg,Hessen
DE722,Lahn-Dill-Kreis,211,200,50.58,8.4685,Aßlar Klein-Altenstädten,Hessen
DE722,Lahn-Dill-Kreis,977,377,50.8541,8.3416,Dietzhölztal-Mandeln,Hessen
DE722,Lahn-Dill-Kreis,979,314,50.7364,8.2672,Dillenburg,Hessen
DE722,Lahn-Dill-Kreis,1055,482,50.6316,8.1813,Driedorf,Hessen
DE722,Lahn-Dill-Kreis,6136,220,50.7,8.3,Dillenburg-Niederscheld (Klära,Hessen
DE722,Lahn-Dill-Kreis,15490,298,50.8053,8.3382,Eschenburg-Eibelshausen,Hessen
DE723,Limburg-Weilburg,837,244,50.2863,8.2949,"Camberg, Bad",Hessen
DE723,Limburg-Weilburg,3004,185,50.4116,8.0605,Limburg/Lahn-Offheim,Hessen
DE723,Limburg-Weilburg,3005,175,50.371,8.0713,Limburg/Lahn-Blumenrod (Zeppe,Hessen
DE723,Limburg-Weilburg,3042,230,50.5617,8.2386,Löhnberg-Obershausen,Hessen
DE723,Limburg-Weilburg,5294,280,50.5121,8.1326,Waldbrunn-Lahr,Hessen
DE723,Limburg-Weilburg,5416,183,50.4284,8.3806,Weilmünster,Hessen
DE723,Limburg-Weilburg,6344,168,50.394,8.1423,Runkel-Ennerich,Hessen
DE724,Marburg-Biedenkopf,158,210,50.784,8.9545,Amöneburg-Rüdigheim,Hessen
DE724,Marburg-Biedenkopf,482,280,50.8833,8.55,Biedenkopf-Eckelshausen,Hessen
DE724,Marburg-Biedenkopf,3162,178,50.7755,8.7612,Marburg-Cappel,Hessen
DE724,Marburg-Biedenkopf,3164,187,50.8492,8.7746,"Cölbe, Kr. Marburg-Biedenkopf",Hessen
DE724,Marburg-Biedenkopf,5524,227,50.9087,8.6929,Wetter/Hessen-Amönau,Hessen
DEB13,Altenkirchen (Westerwald),1559,402,50.7421,7.8163,Gebhardshain,Rheinland-Pfalz
DEB13,Altenkirchen (Westerwald),2211,295,50.7371,7.6528,Hilgenroth,Rheinland-Pfalz
DEB13,Altenkirchen (Westerwald),5625,320,50.8202,7.7419,Wissen/Sieg-Honigsessen (WWV RLP),Rheinland-Pfalz
DEB13,Altenkirchen (Westerwald),7499,172,50.7893,7.827999999999999,Wallmenroth,Rheinland-Pfalz
DEB13,Altenkirchen (Westerwald),13918,160,50.6181,7.478,Peterslahr (Kläranlage),Rheinland-Pfalz
DEB13,Altenkirchen (Westerwald),14026,312,50.7316,7.7002,Isert (DLR RLP),Rheinland-Pfalz
DEB13,Altenkirchen (Westerwald),15201,225,50.815,7.7981,Elkhausen,Rheinland-Pfalz
DEB13,Altenkirchen (Westerwald),15851,483,50.7668,7.9735,Herdorf,Rheinland-Pfalz
DEB14,Bad Kreuznach,2595,181,49.788999999999994,7.4853,Kirn,Rheinland-Pfalz
DEB14,Bad Kreuznach,3921,396,49.85,7.6,Pferdsfeld,Rheinland-Pfalz
DEB14,Bad Kreuznach,4301,102,49.8502,7.871,"Kreuznach, Bad",Rheinland-Pfalz
DEB14,Bad Kreuznach,4474,170,49.7961,7.7583,Schlossböckelheim,Rheinland-Pfalz
DEB14,Bad Kreuznach,4650,344,49.8417,7.5541,"Seesbach, Kr. Bad Kreuznach",Rheinland-Pfalz
DEB14,Bad Kreuznach,6192,115,49.8083,7.8458,"Münster am Stein, Bad",Rheinland-Pfalz
DEB14,Bad Kreuznach,14038,160,49.7809,7.6118,Meddersheim (DLR RLP),Rheinland-Pfalz
DEB14,Bad Kreuznach,14139,610,49.8967,7.5869,Entenpfuhl (DLR RLP),Rheinland-Pfalz
DEB15,Birkenfeld,732,545,49.7985,7.2278,"Bruchweiler, Kr. Birkenfeld",Rheinland-Pfalz
DEB15,Birkenfeld,2167,302,49.7672,7.3356,Niederwörresbach,Rheinland-Pfalz
DEB15,Birkenfeld,2385,376,49.6927,7.3264,Idar-Oberstein,Rheinland-Pfalz
DEB15,Birkenfeld,4167,370,49.8633,7.3378,Rhaunen,Rheinland-Pfalz
DEB15,Birkenfeld,6319,330,49.6147,7.2025,Hoppstädten-Weiersbach,Rheinland-Pfalz
DEB15,Birkenfeld,6333,650,49.7286,7.1289,Hüttgeswasen,Rheinland-Pfalz
DEB15,Birkenfeld,14022,461,49.6353,7.2105,Dienstweiler (DLR RLP),Rheinland-Pfalz
DEB15,Birkenfeld,15009,460,49.657,7.1039,Abentheuer,Rheinland-Pfalz
DEB15,Birkenfeld,15212,297,49.8736,7.3813,Hausen,Rheinland-Pfalz
DEB15,Birkenfeld,15448,411,49.6185,7.308,Baumholder (DLR RLP),Rheinland-Pfalz
DEB15,Birkenfeld,15561,247,49.7461,7.3919,Fischbach (DLR RLP),Rheinland-Pfalz
DEB15,Birkenfeld,15570,590,49.6938,7.0756,Börfink-Brunnen,Rheinland-Pfalz
DEB15,Birkenfeld,15989,649,49.7409,7.1934,Leisel,Rheinland-Pfalz
DEE03,"Magdeburg, Kreisfreie Stadt",3126,76,52.1029,11.5827,Magdeburg,Sachsen-Anhalt
DEE04,Altmarkkreis Salzwedel,181,30,52.8761,11.5042,Arendsee,Sachsen-Anhalt
DEE04,Altmarkkreis Salzwedel,966,65,52.7522,10.8831,Diesdorf,Sachsen-Anhalt
DEE04,Altmarkkreis Salzwedel,1544,47,52.5129,11.3941,Gardelegen,Sachsen-Anhalt
DEE04,Altmarkkreis Salzwedel,2662,59,52.5233,11.1261,Köckte,Sachsen-Anhalt
DEE04,Altmarkkreis Salzwedel,4373,29,52.8568,11.1319,Salzwedel,Sachsen-Anhalt
DEE04,Altmarkkreis Salzwedel,5614,35,52.7582,11.2549,Winterfeld-Sallenthin,Sachsen-Anhalt
DEE05,Anhalt-Bitterfeld,287,52,51.9611,11.9159,Walternienburg-Ronney,Sachsen-Anhalt
DEE05,Anhalt-Bitterfeld,524,80,51.6333,12.3167,Bitterfeld,Sachsen-Anhalt
DEE05,Anhalt-Bitterfeld,2704,76,51.7511,12.0094,Köthen (Anhalt),Sachsen-Anhalt
DEE05,Anhalt-Bitterfeld,4782,87,51.604,12.1093,Spören-Prussendorf,Sachsen-Anhalt
DEE05,Anhalt-Bitterfeld,7364,74,51.681999999999995,12.3042,Jeßnitz,Sachsen-Anhalt
DEE05,Anhalt-Bitterfeld,7500,82,52.0223,12.1597,Badewitz bei Zerbst,Sachsen-Anhalt
DEA45,Lippe,950,194,51.95,8.9,Detmold,Nordrhein-Westfalen
DEA45,Lippe,1131,430,51.831,8.9506,Eggegebirge,Nordrhein-Westfalen
DEA45,Lippe,2810,150,51.9446,8.7749,"Lage, Kreis Lippe-Hörste",Nordrhein-Westfalen
DEA45,Lippe,3227,216,51.8936,8.9842,"Meinberg, Bad",Nordrhein-Westfalen
DEA45,Lippe,4371,135,52.1042,8.7521,"Salzuflen, Bad",Nordrhein-Westfalen
DEA45,Lippe,4442,155,51.9119,9.1533,Schieder,Nordrhein-Westfalen
DEA45,Lippe,6197,258,51.8664,9.2709,Lügde-Paenbruch,Nordrhein-Westfalen
DE916,Goslar,106,500,51.7976,10.4429,Altenau,Niedersachsen
DE916,Goslar,656,607,51.7234,10.6021,Braunlage,Niedersachsen
DE916,Goslar,657,625,51.6634,10.669,Braunlage-Hohegeiß,Niedersachsen
DE916,Goslar,863,585,51.7904,10.347000000000001,Clausthal-Zellerfeld,Niedersachsen
DE916,Goslar,1929,567,51.8597,10.3368,Hahnenklee,Niedersachsen
DE916,Goslar,2039,201,51.9002,10.5699,"Harzburg, Bad",Niedersachsen
DE916,Goslar,2839,210,51.9262,10.3461,Langelsheim-Astfeld,Niedersachsen
DE916,Goslar,4571,504,51.8369,10.4312,Schulenberg,Niedersachsen
DE916,Goslar,4651,186,51.903999999999996,10.1885,Seesen,Niedersachsen
DE916,Goslar,7099,187,52.0111,10.3966,Liebenburg-Othfresen,Niedersachsen
DE917,Helmstedt,4947,129,52.2317,10.92,Süpplingen,Niedersachsen
DE917,Helmstedt,13777,110,52.2467,10.9592,Helmstedt-Emmerstedt,Niedersachsen
DE917,Helmstedt,15832,88,52.3334,10.802999999999999,Glentorf Pegel,Niedersachsen
DE918,Northeim,378,136,51.6843,10.1077,Berka,Niedersachsen
DE918,Northeim,567,258,51.6957,9.5135,Bodenfelde-Amelith,Niedersachsen
DE918,Northeim,1172,123,51.8189,9.8871,Einbeck,Niedersachsen
DE918,Northeim,1173,105,51.7979,9.9171,Einbeck-Salzderhelden,Niedersachsen
DE918,Northeim,3348,240,51.7209,9.8352,Moringen-Lutterbeck,Niedersachsen
DE918,Northeim,3650,212,51.763000000000005,10.0416,Northeim-Imbshausen,Niedersachsen
DE918,Northeim,3651,109,51.7521,9.945,Northeim-Stöckheim,Niedersachsen
DE918,Northeim,15843,144,51.863,10.0662,Seboldshausen,Niedersachsen
DE11A,Schwäbisch Hall,881,423,49.0985,10.0979,Crailsheim-Alexandersreut,Baden-Württemberg
DE11A,Schwäbisch Hall,1538,351,49.0182,9.7414,Gaildorf-Hägenau,Baden-Württemberg
DE11A,Schwäbisch Hall,1614,474,49.2514,9.9338,Gerabronn,Baden-Württemberg
DE11A,Schwäbisch Hall,2575,426,49.1804,9.98,Kirchberg/Jagst-Herboldshausen,Baden-Württemberg
DE11A,Schwäbisch Hall,4582,358,49.0823,9.6892,Schwäbisch Hall-Bibersfeld,Baden-Württemberg
DE11A,Schwäbisch Hall,4880,450,49.0878,10.124,Stimpfach-Weipertshofen,Baden-Württemberg
DE11A,Schwäbisch Hall,5206,396,49.1175,9.8972,Vellberg-Kleinaltdorf,Baden-Württemberg
DE11A,Schwäbisch Hall,5988,415,49.1638,9.9162,Ilshofen,Baden-Württemberg
DE11A,Schwäbisch Hall,7233,415,49.257,10.0152,Rot am See,Baden-Württemberg
DE11A,Schwäbisch Hall,7237,380,49.0537,9.6245,Schwäbisch Hall-Wielandsweiler,Baden-Württemberg
DE11A,Schwäbisch Hall,7491,395,49.153999999999996,10.0632,Crailsheim (LUBW),Baden-Württemberg
DE11A,Schwäbisch Hall,15011,375,49.0472,9.9084,Bühlertann,Baden-Württemberg
DE11B,Main-Tauber-Kreis,47,338,49.4997,9.5439,Ahorn-Eubigheim,Baden-Württemberg
DE11B,Main-Tauber-Kreis,634,373,49.4442,9.6458,Boxberg-Seehof,Baden-Württemberg
DE11B,Main-Tauber-Kreis,635,378,49.45,9.6333,Boxberg-Seehof (West),Baden-Württemberg
DE11B,Main-Tauber-Kreis,636,373,49.45,9.65,Boxberg-Seehof (Wind-3m),Baden-Württemberg
DE11B,Main-Tauber-Kreis,1284,335,49.7,9.5,Ernsthof,Baden-Württemberg
DE11B,Main-Tauber-Kreis,2771,323,49.6672,9.5222,Külsheim,Baden-Württemberg
DE11B,Main-Tauber-Kreis,2880,324,49.5522,9.6345,Lauda-Königshofen-Heckfeld,Baden-Württemberg
DE11B,Main-Tauber-Kreis,3257,250,49.4773,9.7622,"Mergentheim, Bad-Neunkirchen",Baden-Württemberg
DE11B,Main-Tauber-Kreis,3603,459,49.3895,9.9667,Niederstetten,Baden-Württemberg
DE11B,Main-Tauber-Kreis,7104,225,49.6208,9.6033,Königheim,Baden-Württemberg
DE11B,Main-Tauber-Kreis,7187,193,49.7636,9.4063,Freudenberg/Main-Boxtal,Baden-Württemberg
DE11B,Main-Tauber-Kreis,7227,280,49.6789,9.523,Külsheim (LUBW),Baden-Württemberg
DE11B,Main-Tauber-Kreis,7231,375,49.4042,9.8691,Niederstetten-Adolzhausen,Baden-Württemberg
DE11B,Main-Tauber-Kreis,7492,260,49.4844,10.019,Creglingen (LUBW),Baden-Württemberg
DE11C,Heidenheim,2088,498,48.6765,10.1307,Heidenheim/Brenz,Baden-Württemberg
DE11C,Heidenheim,3440,530,48.7071,10.2997,Nattheim-Fleinheim,Baden-Württemberg
DE11C,Heidenheim,3605,451,48.5334,10.243,Niederstotzingen,Baden-Württemberg
DE11C,Heidenheim,7331,468,48.6099,10.2674,Hermaringen-Allewind,Baden-Württemberg
DEE09,Harz,213,170,51.9375,10.9897,Sargstedt,Sachsen-Anhalt
DEE09,Harz,350,540,51.6715,10.7268,Benneckenstein,Sachsen-Anhalt
DEE09,Harz,722,1134,51.7986,10.6183,Brocken,Sachsen-Anhalt
DEE09,Harz,775,100,52.0,10.6323,Osterwieck-Rimbeck,Sachsen-Anhalt
DEE09,Harz,1488,523,51.6884,11.0394,Friedrichsbrunn,Sachsen-Anhalt
DEE09,Harz,2044,404,51.652,11.1367,Harzgerode,Sachsen-Anhalt
DEE09,Harz,4032,142,51.7953,11.132,Quedlinburg,Sachsen-Anhalt
DEE09,Harz,4445,609,51.7658,10.6533,Wernigerode-Schierke,Sachsen-Anhalt
DEE09,Harz,4593,117,51.9639,11.1208,Schwanebeck,Sachsen-Anhalt
DEE09,Harz,4878,504,51.6646,10.8811,Oberharz am Brocken-Stiege,Sachsen-Anhalt
DEE09,Harz,5490,233,51.8454,10.7686,Wernigerode,Sachsen-Anhalt
DEE09,Harz,6266,112,52.0304,10.9626,Huy-Pabstorf,Sachsen-Anhalt
DEE0A,Mansfeld-Südharz,815,154,51.5427,11.6948,Seegebiet Mansfelder Land-Dederstedt,Sachsen-Anhalt
DEE0A,Mansfeld-Südharz,974,440,51.5307,11.0457,Südharz-Dietersdorf,Sachsen-Anhalt
DEE0A,Mansfeld-Südharz,1182,146,51.5029,11.5705,Eisleben-Helfta,Sachsen-Anhalt
DEE0A,Mansfeld-Südharz,4381,179,51.4776,11.3123,Sangerhausen,Sachsen-Anhalt
DEE0A,Mansfeld-Südharz,5814,321,51.5504,11.402999999999999,Mansfeld-Annarode,Sachsen-Anhalt
DEA1F,Wesel,989,46,51.5765,6.7849,Dinslaken,Nordrhein-Westfalen
DEA1F,Wesel,5733,20,51.696999999999996,6.3974,Xanten,Nordrhein-Westfalen
DEA1F,Wesel,14148,27,51.6531,6.7581,Hünxe (WV NRW),Nordrhein-Westfalen
DEA1F,Wesel,14174,27,51.4342,6.5703,Neukirchen (WV NRW),Nordrhein-Westfalen
DEA1F,Wesel,14175,22,51.5786,6.5095,Alpen (WV NRW),Nordrhein-Westfalen
DEA1F,Wesel,15190,18,51.6802,6.4349,Xanten (Wasserwerk),Nordrhein-Westfalen
DEA46,Minden-Lübbecke,3081,65,52.3452,8.6477,Espelkamp-Isenstedt,Nordrhein-Westfalen
DEA46,Minden-Lübbecke,3913,43,52.3817,9.0176,Petershagen,Nordrhein-Westfalen
DEA46,Minden-Lübbecke,3914,36,52.4817,9.1214,Petershagen-Wasserstraße,Nordrhein-Westfalen
DEA46,Minden-Lübbecke,4063,41,52.4461,8.5906,Rahden-Kleinendorf,Nordrhein-Westfalen
DEA47,Paderborn,781,221,51.6126,8.619,Bühren-Ahden,Nordrhein-Westfalen
DEA47,Paderborn,934,88,51.7835,8.5658,Delbrück,Nordrhein-Westfalen
DEA47,Paderborn,3028,157,51.7855,8.8388,"Lippspringe, Bad",Nordrhein-Westfalen
DEA47,Paderborn,4368,93,51.7098,8.5796,Salzkotten,Nordrhein-Westfalen
DEA47,Paderborn,5699,312,51.5427,8.7784,Wünnenberg-Eilern,Nordrhein-Westfalen
DEA47,Paderborn,14185,304,51.605,8.8175,Lichtenau-Ebbinghausen (HRB) (WV NRW),Nordrhein-Westfalen
DEA47,Paderborn,14186,291,51.5319,8.7289,Gollentaler Grund (HRB) (WV NRW),Nordrhein-Westfalen
DEA47,Paderborn,14187,226,51.5831,8.8478,Husen-Dalheim (HRB) (WV NRW),Nordrhein-Westfalen
DEA47,Paderborn,15120,379,51.5572,8.7019,Haaren,Nordrhein-Westfalen
DEA51,"Bochum, Kreisfreie Stadt",555,101,51.4789,7.2697,Bochum,Nordrhein-Westfalen
DEA51,"Bochum, Kreisfreie Stadt",7365,187,51.4435,7.2639,Bochum (Ruhruniversität),Nordrhein-Westfalen
DEA52,"Dortmund, Kreisfreie Stadt",1032,120,51.512,7.5345,Dortmund,Nordrhein-Westfalen
DEA52,"Dortmund, Kreisfreie Stadt",1035,122,51.5206,7.6161,Dortmund-Wickede,Nordrhein-Westfalen
DEA52,"Dortmund, Kreisfreie Stadt",6043,69,51.537,7.5809,Kurl PW,Nordrhein-Westfalen
DEA52,"Dortmund, Kreisfreie Stadt",14145,71,51.513999999999996,7.3817,Dortmund /Oespeler Bach (WV NRW),Nordrhein-Westfalen
DEA53,"Hagen, Kreisfreie Stadt",1920,100,51.4129,7.4895,Hagen-Fley,Nordrhein-Westfalen
DEA53,"Hagen, Kreisfreie Stadt",1922,111,51.3598,7.4717,Hagen (Stadtsparkasse),Nordrhein-Westfalen
DEA53,"Hagen, Kreisfreie Stadt",14172,113,51.3665,7.5456,Hagen-Hohenlimburg (WV NRW),Nordrhein-Westfalen
DEB3E,Germersheim,4310,105,49.1609,8.3009,Rülzheim,Rheinland-Pfalz
DEB3E,Germersheim,6315,123,49.0236,8.1788,Büchelberg,Rheinland-Pfalz
DEB3E,Germersheim,14019,129,49.2449,8.2912,Lustadt (DLR RLP),Rheinland-Pfalz
DE27C,Unterallgäu,677,610,48.1266,10.3649,Breitenbrunn-Fürbuch,Bayern
DE27C,Unterallgäu,3245,630,47.9833,10.2333,Memmingen (Flugplatz),Bayern
DE27C,Unterallgäu,3293,590,48.0649,10.4835,Mindelheim,Bayern
DE27C,Unterallgäu,3849,667,47.9303,10.31,Ottobeuren,Bayern
DE27D,Donau-Ries,2023,501,48.7918,10.7062,Harburg,Bayern
DE27D,Donau-Ries,2488,516,48.7701,10.7876,Kaisheim-Neuhof,Bayern
DE27D,Donau-Ries,3621,435,48.8253,10.5067,Reimlingen,Bayern
DE27D,Donau-Ries,4065,462,48.6192,11.0059,Rain am Lech-Wallerdorf,Bayern
DE27D,Donau-Ries,4159,522,48.8104,10.9359,Tagmersheim-Blossenau,Bayern
DE27D,Donau-Ries,7319,435,48.7374,10.7393,Donauwörth-Osterweiler,Bayern
DE27E,Oberallgäu,146,730,47.7922,10.0988,Altusried-Muthmannshofen,Bayern
DE27E,Oberallgäu,275,1037,47.465,10.1043,Balderschwang,Bayern
DE27E,Oberallgäu,1372,757,47.4608,10.2696,Fischen,Bayern
DE27E,Oberallgäu,2221,1053,47.5408,10.4371,Hindelang-Unterjoch,Bayern
DE27E,Oberallgäu,2222,1015,47.5561,10.4274,Hindelang-Unterjoch (LfW),Bayern
DE27E,Oberallgäu,2405,960,47.6078,10.202,Immenstadt-Reute,Bayern
DE27E,Oberallgäu,3727,800,47.5619,10.0313,Oberstaufen-Kalzhofen,Bayern
DE27E,Oberallgäu,3729,748,47.5577,10.0938,Oberstaufen-Thalkirchdorf,Bayern
DE27E,Oberallgäu,3730,806,47.3984,10.2759,Oberstdorf,Bayern
DE27E,Oberallgäu,3857,886,47.6362,10.3892,Oy-Mittelberg-Petersthal,Bayern
DE27E,Oberallgäu,4251,1067,47.4069,10.1676,Oberstdorf-Rohrmoos,Bayern
DE27E,Oberallgäu,4760,730,47.5219,10.2613,Sonthofen (Flussmeisterstelle),Bayern
DE27E,Oberallgäu,5366,927,47.4167,10.25,Wasach,Bayern
DE21D,Garmisch-Partenkirchen,1313,940,47.5667,10.9612,Ettal-Linderhof,Bayern
DE21D,Garmisch-Partenkirchen,1550,719,47.483000000000004,11.0621,Garmisch-Partenkirchen,Bayern
DE21D,Garmisch-Partenkirchen,2708,742,47.6652,11.0805,"Kohlgrub, Bad (Rosshof)",Bayern
DE21D,Garmisch-Partenkirchen,2759,873,47.5037,11.2808,Krün,Bayern
DE21D,Garmisch-Partenkirchen,3307,984,47.4779,11.2653,Mittenwald-Buckelwiesen,Bayern
DE21D,Garmisch-Partenkirchen,3677,832,47.603,11.0607,Oberammergau,Bayern
DE21D,Garmisch-Partenkirchen,5792,2964,47.4209,10.9847,Zugspitze,Bayern
DE21D,Garmisch-Partenkirchen,5890,850,47.6777,11.0473,"Kohlgrub, Bad (A)",Bayern
DE21D,Garmisch-Partenkirchen,5891,860,47.6667,11.0333,"Kohlgrub, Bad",Bayern
DE21D,Garmisch-Partenkirchen,6103,923,47.4287,11.2617,Mittenwald/Obb.,Bayern
DE21D,Garmisch-Partenkirchen,6307,825,47.4772,10.9403,Garmisch-Partenkirchen-Griesen,Bayern
DE21D,Garmisch-Partenkirchen,7325,2650,47.4167,10.9794,Schneefernerhaus,Bayern
DE21D,Garmisch-Partenkirchen,15930,920,47.4921,11.1747,Garmisch-Partenkirchen (Kanker),Bayern
DE21E,Landsberg am Lech,2829,621,48.0772,10.9144,Landsberg (Flugplatz),Bayern
DE21E,Landsberg am Lech,5187,591,48.0347,11.0527,Utting-Achselschwang,Bayern
DE21E,Landsberg am Lech,5226,708,47.953,10.9151,Vilgertshofen,Bayern
DE21E,Landsberg am Lech,5227,685,47.9688,10.9156,Vilgertshofen-Pflugdorf,Bayern
DE21E,Landsberg am Lech,6341,658,47.9603,11.0136,Dießen/Ammersee-Dettenschwang,Bayern
DE21E,Landsberg am Lech,14350,627,48.0035,11.012,Finning (Windachspeicher),Bayern
DE21F,Miesbach,321,789,47.6797,12.0017,Bayrischzell,Bayern
DE21F,Miesbach,2319,685,47.8823,11.6961,Holzkirchen,Bayern
DE21F,Miesbach,2320,680,47.8735,11.7092,Holzkirchen/Obb,Bayern
DE21F,Miesbach,2415,713,47.8177,11.8681,Irschenberg-Kasthub,Bayern
DE21F,Miesbach,2738,776,47.6447,11.7436,Kreuth,Bayern
DE21F,Miesbach,2740,897,47.6105,11.6462,Kreuth-Glashütte,Bayern
DE21F,Miesbach,4293,747,47.6819,11.7714,Rottach-Egern,Bayern
DE21F,Miesbach,4471,780,47.7358,11.8505,Schliersee (A),Bayern
DE21F,Miesbach,4617,1368,47.6701,11.8544,Obere Firstalm/Schlierseer Berge,Bayern
DE21F,Miesbach,4996,837,47.7099,11.7639,Tegernsee,Bayern
DE21F,Miesbach,5262,814,47.7564,11.6928,Waakirchen-Demmelberg,Bayern
DE21F,Miesbach,5467,1832,47.7035,12.0119,Wendelstein,Bayern
DE21F,Miesbach,6295,650,47.803000000000004,11.825,Miesbach (Kläranlage),Bayern
DE23A,Tirschenreuth,2556,460,49.8671,11.8807,Kemnath,Bayern
DE23A,Tirschenreuth,3121,677,49.9113,12.5276,Mähring,Bayern
DE23A,Tirschenreuth,5046,501,49.8576,12.3542,Tirschenreuth-Lodermühl,Bayern
DE23A,Tirschenreuth,5303,723,49.93600000000001,12.0935,Waldershof-Schafbruck,Bayern
DE23A,Tirschenreuth,6298,530,49.8128,12.3293,Plößberg-Liebenstein (Speicher),Bayern
DE241,"Bamberg, Kreisfreie Stadt",282,240,49.8743,10.9206,Bamberg,Bayern
DE241,"Bamberg, Kreisfreie Stadt",284,282,49.88,10.88,Bamberg (Sternwarte),Bayern
DEA22,"Bonn, Kreisfreie Stadt",598,62,50.7285,7.0839,Bonn,Nordrhein-Westfalen
DEA22,"Bonn, Kreisfreie Stadt",599,62,50.7055,7.1467,Bonn-Friesdorf,Nordrhein-Westfalen
DEA22,"Bonn, Kreisfreie Stadt",601,158,50.6983,7.0356,Bonn-Hardthöhe,Nordrhein-Westfalen
DEA22,"Bonn, Kreisfreie Stadt",602,60,50.7167,7.1,Bonn-Poppelsdorf,Nordrhein-Westfalen
DEA23,"Köln, Kreisfreie Stadt",832,48,50.9833,6.9,Butzweilerhof,Nordrhein-Westfalen
DEA23,"Köln, Kreisfreie Stadt",2665,45,50.9615,6.9712,Köln-Botanischer Garten,Nordrhein-Westfalen
DEA23,"Köln, Kreisfreie Stadt",2968,43,50.9894,6.9777,Köln-Stammheim,Nordrhein-Westfalen
DEA24,"Leverkusen, Kreisfreie Stadt",14180,43,51.0469,6.9729,Leverkusen (Gklw.) (WV NRW),Nordrhein-Westfalen
DEA26,Düren,2473,76,50.9316,6.3431,Jülich (Kläranlage),Nordrhein-Westfalen
DEA26,Düren,2474,91,50.9104,6.4093,Jülich (Forsch.-Anlage),Nordrhein-Westfalen
DEA26,Düren,3591,350,50.6743,6.4239999999999995,Nideggen-Schmidt,Nordrhein-Westfalen
DEA26,Düren,3623,111,50.8294,6.6602,Nörvenich (Flugplatz),Nordrhein-Westfalen
DEA26,Düren,6050,142,50.7439,6.6097,Vettweiss,Nordrhein-Westfalen
DEA26,Düren,6051,271,50.6556,6.5536,Heimbach-Vlatten,Nordrhein-Westfalen
DEA27,Rhein-Erft-Kreis,6047,78,50.995,6.7111,Buesdorf,Nordrhein-Westfalen
DEA27,Rhein-Erft-Kreis,6048,90,50.9981,6.4925,Bedburg-Grottenherten,Nordrhein-Westfalen
DEA27,Rhein-Erft-Kreis,6067,73,50.8825,6.6989,Kerpen,Nordrhein-Westfalen
DEA27,Rhein-Erft-Kreis,7378,101,51.0149,6.5173,Bedburg-Weiler Hohenholz,Nordrhein-Westfalen
DEA27,Rhein-Erft-Kreis,14164,67,50.9601,6.6318,Bergheim (Erftverband WV NRW),Nordrhein-Westfalen
DEB3F,"Kaiserslautern, Landkreis",730,238,49.3864,7.4567,Bruchmühlbach-Miesau (WWV RLP),Rheinland-Pfalz
DEB3F,"Kaiserslautern, Landkreis",5103,348,49.3544,7.7948,Trippstadt-Neuhof,Rheinland-Pfalz
DEB3F,"Kaiserslautern, Landkreis",6318,261,49.5284,7.8887,Enkenbach,Rheinland-Pfalz
DEB3F,"Kaiserslautern, Landkreis",13780,310,49.5419,7.7179,Schallodenbach (WWV),Rheinland-Pfalz
DEB3F,"Kaiserslautern, Landkreis",14028,411,49.3684,7.4688,Martinshöhe (DLR RLP),Rheinland-Pfalz
DEB3F,"Kaiserslautern, Landkreis",15822,369,49.4324,7.9086,Hochspeyer,Rheinland-Pfalz
DEB3F,"Kaiserslautern, Landkreis",15850,416,49.5248,7.6431,Frankelbach,Rheinland-Pfalz
DEB3F,"Kaiserslautern, Landkreis",15978,316,49.5044,7.8618,Sembach,Rheinland-Pfalz
DEB3G,Kusel,1650,250,49.4648,7.4111,Henschtal,Rheinland-Pfalz
DEB3G,Kusel,6322,215,49.5414,7.4299,Kusel (Kläranlage),Rheinland-Pfalz
DEB3G,Kusel,6325,160,49.687,7.6528,Odenbach,Rheinland-Pfalz
DEB3G,Kusel,7139,303,49.6111,7.6428,Einöllen,Rheinland-Pfalz
DEB3G,Kusel,7375,411,49.645,7.5003,Homberg-Schönbornerhof,Rheinland-Pfalz
DEE06,Jerichower Land,797,39,52.3241,11.8339,Burg-Blumenthal,Sachsen-Anhalt
DEE06,Jerichower Land,1052,80,52.2174,12.1641,Drewitz bei Burg,Sachsen-Anhalt
DEE06,Jerichower Land,1605,35,52.3875,12.1601,Genthin,Sachsen-Anhalt
DEE06,Jerichower Land,2673,52,52.133,11.7757,Königsborn,Sachsen-Anhalt
DE40F,Prignitz,2531,32,53.1724,11.7491,Karstädt/Prignitz,Brandenburg
DE40F,Prignitz,2779,63,53.1486,12.0851,Kuhbier,Brandenburg
DE40F,Prignitz,2951,20,53.1007,11.4864,Lenzen/Elbe,Brandenburg
DE40F,Prignitz,3280,98,53.3083,12.2937,Meyenburg,Brandenburg
DE40F,Prignitz,3906,40,53.0952,11.8603,Perleberg,Brandenburg
DE40F,Prignitz,4566,46,52.9738,12.1115,Schrepkow,Brandenburg
DE40F,Prignitz,5431,24,53.0333,11.8,Weisen bei Wittenberge,Sachsen-Anhalt
DE40G,Spree-Neiße,1744,139,51.5718,14.4764,Graustein,Brandenburg
DE40G,Spree-Neiße,3997,100,51.6667,14.6333,Preschen (Flugplatz),Brandenburg
DE725,Vogelsbergkreis,90,305,50.7557,9.2583,Alsfeld,Hessen
DE725,Vogelsbergkreis,91,300,50.7446,9.345,Alsfeld-Eifa,Hessen
DE725,Vogelsbergkreis,2897,522,50.5808,9.2857,Lautertal-Hörgenau,Hessen
DE725,Vogelsbergkreis,4560,265,50.4925,9.1226,Schotten,Hessen
DE725,Vogelsbergkreis,5277,349,50.8119,9.128,Wahlen,Hessen
DE725,Vogelsbergkreis,7396,743,50.5084,9.2247,Hoherodskopf/Vogelsberg,Hessen
DE725,Vogelsbergkreis,7410,350,50.7513,9.0224,Neu-Ulrichstein,Hessen
DE113,Esslingen,279,457,48.7573,9.4514,Baltmannsweiler-Hohengehren,Baden-Württemberg
DE113,Esslingen,2949,758,48.5396,9.5275,Lenningen-Schopfloch,Baden-Württemberg
DE113,Esslingen,3671,280,48.6321,9.3261,Nürtingen,Baden-Württemberg
DE113,Esslingen,4931,371,48.6883,9.2235,Stuttgart-Echterdingen,Baden-Württemberg
DE113,Esslingen,5678,380,48.6529,9.297,Wolfschlugen,Baden-Württemberg
DE113,Esslingen,6275,325,48.6705,9.4627,Notzingen,Baden-Württemberg
DE113,Esslingen,15016,280,48.6137,9.2947,Neckartailfingen,Baden-Württemberg
DE114,Göppingen,594,425,48.6407,9.6136,"Boll, Bad (KKst)",Baden-Württemberg
DE114,Göppingen,4887,734,48.6656,9.8648,Stötten,Baden-Württemberg
DE114,Göppingen,7242,565,48.5682,9.6372,Wiesensteig,Baden-Württemberg
DE114,Göppingen,7489,348,48.7448,9.6484,Birenbach,Baden-Württemberg
DE115,Ludwigsburg,3733,468,49.0495,9.3923,Oberstenfeld-Prevorst,Baden-Württemberg
DE115,Ludwigsburg,4349,248,48.9569,9.071,Sachsenheim,Baden-Württemberg
DE115,Ludwigsburg,5990,221,49.0137,9.3153,Oberstenfeld,Baden-Württemberg
DE115,Ludwigsburg,7238,200,48.9243,8.9536,Vaihingen/ Enz,Baden-Württemberg
DE116,Rems-Murr-Kreis,2485,489,48.917,9.6871,Kaisersbach-Cronhütte,Baden-Württemberg
DE116,Rems-Murr-Kreis,6259,524,49.021,9.6033,Großerlach-Mannenweiler,Baden-Württemberg
DE116,Rems-Murr-Kreis,7241,470,48.8707,9.6442,Welzheim (LUBW),Baden-Württemberg
DE116,Rems-Murr-Kreis,7380,233,48.9353,9.4009,Backnang (LUBW),Baden-Württemberg
DE116,Rems-Murr-Kreis,10510,241,48.8059,9.5046,Winterbach/Remstal,Baden-Württemberg
DEB17,Mayen-Koblenz,161,75,50.4237,7.4202,Andernach,Rheinland-Pfalz
DEB17,Mayen-Koblenz,348,127,50.4135,7.5886,Bendorf,Rheinland-Pfalz
DEB17,Mayen-Koblenz,3246,181,50.3667,7.3167,Mendig,Rheinland-Pfalz
DEB17,Mayen-Koblenz,3969,235,50.3051,7.3108,"Polch, Kr. Mayen-Koblenz",Rheinland-Pfalz
DEB17,Mayen-Koblenz,6242,64,50.4088,7.489,Mülheim-Kärlich,Rheinland-Pfalz
DEB17,Mayen-Koblenz,14020,195,50.2558,7.3535,"Münstermaifeld, Kr. Mayen-Koblenz",Rheinland-Pfalz
DEB18,Neuwied,2362,328,50.5651,7.4843,Hümmerich,Rheinland-Pfalz
DEB18,Neuwied,4157,315,50.5052,7.4881,Rengsdorf (Kurort),Rheinland-Pfalz
DEB18,Neuwied,14032,91,50.4468,7.5357,Heimbach-Weis (DLR RLP),Rheinland-Pfalz
DEB18,Neuwied,15044,199,50.4517,7.4058,Neuwied-Feldkirchen-Hüllenberg,Rheinland-Pfalz
DEB18,Neuwied,19100,97,50.4563,7.4962,Neuwied-Torney,Rheinland-Pfalz
DEB1A,Rhein-Lahn-Kreis,978,155,50.3574,8.0485,Holzheim bei Diez,Rheinland-Pfalz
DEB1A,Rhein-Lahn-Kreis,1598,328,50.248000000000005,7.7456,Oberbachheim,Rheinland-Pfalz
DEB1A,Rhein-Lahn-Kreis,3699,71,50.3,7.6167,Oberlahnstein,Rheinland-Pfalz
DEB1A,Rhein-Lahn-Kreis,6186,268,50.1989,7.8651,Nastätten,Rheinland-Pfalz
DEB1A,Rhein-Lahn-Kreis,13779,220,50.2696,7.8199,Singhofen (Kläranlage),Rheinland-Pfalz
DEB1A,Rhein-Lahn-Kreis,13912,85,50.3158,7.7785,Nassau (Kläranlage),Rheinland-Pfalz
DEB1A,Rhein-Lahn-Kreis,14027,372,50.2643,8.0072,Berghausen (DLR RLP),Rheinland-Pfalz
DEE07,Börde,622,66,52.3745,11.4655,Westheide-Born,Sachsen-Anhalt
DEE07,Börde,630,83,52.0194,11.4055,Bottmersdorf-Klein Germersleben,Sachsen-Anhalt
DEE07,Börde,874,52,52.2994,11.6733,Zielitz,Sachsen-Anhalt
DEE07,Börde,2611,115,52.0714,11.3605,Klein Wanzleben,Sachsen-Anhalt
DEE07,Börde,4412,95,52.198,11.4218,Schackensleben,Sachsen-Anhalt
DEE07,Börde,5158,162,52.1601,11.1759,Ummendorf,Sachsen-Anhalt
DEE07,Börde,7285,68,52.4153,11.0758,Bösdorf,Sachsen-Anhalt
DEE08,Burgenlandkreis,124,265,51.2388,11.577,"Bibra, Bad-Altenroda",Sachsen-Anhalt
DEE08,Burgenlandkreis,1847,92,51.2743,12.0517,Weißenfels-Wengelsdorf,Sachsen-Anhalt
DEE08,Burgenlandkreis,2701,136,51.1329,11.7252,"Kösen, Bad",Sachsen-Anhalt
DEE08,Burgenlandkreis,3821,246,51.0873,11.9292,Osterfeld,Sachsen-Anhalt
DEE08,Burgenlandkreis,5750,264,51.0314,12.1495,Zeitz,Sachsen-Anhalt
DEE08,Burgenlandkreis,5763,140,51.238,11.8296,Freyburg/Unstrut-Zeuchfeld,Sachsen-Anhalt
DEE08,Burgenlandkreis,7420,246,51.1044,11.7112,Naumburg/Saale-Kreipitzsch,Sachsen-Anhalt
DE731,"Kassel, Kreisfreie Stadt",2532,231,51.2963,9.4424,Kassel,Hessen
DE731,"Kassel, Kreisfreie Stadt",2533,198,51.333999999999996,9.4506,Kassel-Harleshausen,Hessen
DE731,"Kassel, Kreisfreie Stadt",2536,283,51.3173,9.4145,Kassel-Wilhelmshöhe (A),Hessen
DE731,"Kassel, Kreisfreie Stadt",6181,218,51.3154,9.4281,Kassel-Wilhelmshöhe,Hessen
DE732,Fulda,1526,242,50.5668,9.6533,Fulda-Horas,Hessen
DE732,Fulda,1623,530,50.4477,9.9174,Gersfeld,Hessen
DE732,Fulda,1830,270,50.5455,9.5175,Großenlüder-Kleinlüder,Hessen
DE732,Fulda,3911,305,50.6175,9.725,Petersberg-Marbach,Hessen
DE732,Fulda,4978,395,50.638999999999996,10.0228,Tann/Rhön,Hessen
DE732,Fulda,5371,921,50.4973,9.9427,Wasserkuppe,Hessen
DE733,Hersfeld-Rotenburg,2066,257,50.7383,9.6608,Haunetal-Wehrda,Hessen
DE733,Hersfeld-Rotenburg,2171,272,50.852,9.7377,"Hersfeld, Bad",Hessen
DE91B,Wolfenbüttel,1278,160,52.2449,10.7182,Cremlingen-Destedt,Niedersachsen
DE244,"Hof, Kreisfreie Stadt",2261,565,50.3123,11.876,Hof,Bayern
DE245,"Bamberg, Landkreis",807,290,49.745,10.6434,Schlüsselfeld (Kläranlage),Bayern
DE245,"Bamberg, Landkreis",1107,346,49.852,10.499,Ebrach,Bayern
DE245,"Bamberg, Landkreis",4438,317,49.975,11.0395,Scheßlitz,Bayern
DE245,"Bamberg, Landkreis",4482,410,49.7842,10.5406,Schlüsselfeld-Hohn am Berg,Bayern
DE245,"Bamberg, Landkreis",4801,460,50.007,11.2052,Stadelhofen,Bayern
DE245,"Bamberg, Landkreis",6195,305,49.956,11.0189,Scheßlitz-Köttensdorf,Bayern
DE245,"Bamberg, Landkreis",6282,250,49.7978,10.9998,Altendorf/Oberfranken,Bayern
DED2D,Görlitz,633,125,51.4041,14.5682,Boxberg,Sachsen
DED2D,Görlitz,1684,238,51.1622,14.9506,Görlitz,Sachsen
DED2D,Görlitz,2166,344,51.0167,14.75,Herrnhut,Sachsen
DED2D,Görlitz,2252,270,50.898999999999994,14.7457,Bertsdorf-Hörnitz,Sachsen
DED2D,Görlitz,2958,213,51.0266,14.9356,Ostritz,Sachsen
DED2D,Görlitz,3426,127,51.566,14.7008,"Muskau, Bad",Sachsen
DED2D,Görlitz,7337,332,51.0577,14.6128,Dürrhennersdorf,Sachsen
DED2D,Görlitz,7423,163,51.3443,14.8387,Hähnichen-Trebus,Sachsen
DED2E,Meißen,3234,158,51.1294,13.4328,Garsebach bei Meißen,Sachsen
DED2E,Meißen,5282,246,51.1197,13.6744,Wahnsdorf bei Dresden,Sachsen
DED2E,Meißen,6095,273,51.0838,13.4486,Taubenheim-Seeligstadt,Sachsen
DED2E,Meißen,6314,308,51.0507,13.3003,Nossen,Sachsen
DED2E,Meißen,7334,131,51.2651,13.3588,Heyda bei Riesa,Sachsen
DED2E,Meißen,7335,128,51.3658,13.5801,Strauch,Sachsen
DED2F,Sächsische Schweiz-Osterzgebirge,991,359,50.9116,13.7087,Dippoldiswalde-Reinberg,Sachsen
DED2F,Sächsische Schweiz-Osterzgebirge,1583,823,50.7719,13.7732,Geisingberg,Sachsen
DED2F,Sächsische Schweiz-Osterzgebirge,2985,321,50.9383,14.2093,Lichtenhain-Mittelndorf,Sachsen
DED2F,Sächsische Schweiz-Osterzgebirge,3740,195,50.9933,13.9808,Lohmen/Sachsen,Sachsen
DED2F,Sächsische Schweiz-Osterzgebirge,5779,877,50.7314,13.7516,Zinnwald-Georgenfeld,Sachsen
DED2F,Sächsische Schweiz-Osterzgebirge,5943,460,50.8377,14.0719,Rosenthal-Bielatal,Sachsen
DED2F,Sächsische Schweiz-Osterzgebirge,13654,288,51.0063,13.470999999999998,Wilsdruff-Mohorn,Sachsen
DEA56,Ennepe-Ruhr-Kreis,1245,280,51.3037,7.3145,Ennepetal-Milspe,Nordrhein-Westfalen
DEA56,Ennepe-Ruhr-Kreis,6313,440,51.2488,7.4672,Breckerfeld-Wengeberg,Nordrhein-Westfalen
DEA56,Ennepe-Ruhr-Kreis,13700,205,51.3329,7.3411,Gevelsberg-Oberbröking,Nordrhein-Westfalen
DEA56,Ennepe-Ruhr-Kreis,14173,85,51.383,7.3848,Wetter (WV NRW),Nordrhein-Westfalen
DEA56,Ennepe-Ruhr-Kreis,14182,193,51.2901,7.2759,Schwelm (Klärwerk),Nordrhein-Westfalen
DEA57,Hochsauerlandkreis,98,780,51.18899999999999,8.4671,Altastenberg,Nordrhein-Westfalen
DEA57,Hochsauerlandkreis,186,218,51.3773,8.0713,Arnsberg,Nordrhein-Westfalen
DEA57,Hochsauerlandkreis,1300,351,51.254,8.1565,Eslohe,Nordrhein-Westfalen
DEA57,Hochsauerlandkreis,2482,741,51.1801,8.4887,Kahler Asten (A),Nordrhein-Westfalen
DEA57,Hochsauerlandkreis,2483,839,51.1803,8.4891,Kahler Asten,Nordrhein-Westfalen
DEA57,Hochsauerlandkreis,3215,375,51.1683,8.7125,Medebach-Berge,Nordrhein-Westfalen
DEA57,Hochsauerlandkreis,4488,443,51.2127,8.2672,Schmallenberg-Sellinghausen,Nordrhein-Westfalen
DEA57,Hochsauerlandkreis,5610,681,51.1968,8.5268,Winterberg,Nordrhein-Westfalen
DEA57,Hochsauerlandkreis,6264,457,51.413999999999994,8.65,Brilon-Thülen,Nordrhein-Westfalen
DEA57,Hochsauerlandkreis,7330,159,51.4633,7.978,Arnsberg-Neheim,Nordrhein-Westfalen
